{"type": "FeatureCollection", "features": [{"properties": {"name": "八日市", "uri": "https://uedayou.net/jrslod/近江鉄道/八日市線/八日市", "railname": "近江鉄道八日市線", "door": "NULL"}, "type": "Feature", "geometry": {"type": "Point", "coordinates": [136.19465, 35.11449]}}, {"properties": {"name": "新八日市", "uri": "https://uedayou.net/jrslod/近江鉄道/八日市線/新八日市", "railname": "近江鉄道八日市線", "door": "NULL"}, "type": "Feature", "geometry": {"type": "Point", "coordinates": [136.19243, 35.11059]}}, {"properties": {"name": "太郎坊宮前", "uri": "https://uedayou.net/jrslod/近江鉄道/八日市線/太郎坊宮前", "railname": "近江鉄道八日市線", "door": "NULL"}, "type": "Feature", "geometry": {"type": "Point", "coordinates": [136.18442, 35.10863]}}, {"properties": {"name": "市辺", "uri": "https://uedayou.net/jrslod/近江鉄道/八日市線/市辺", "railname": "近江鉄道八日市線", "door": "NULL"}, "type": "Feature", "geometry": {"type": "Point", "coordinates": [136.16524, 35.10374]}}, {"properties": {"name": "平田", "uri": "https://uedayou.net/jrslod/近江鉄道/八日市線/平田", "railname": "近江鉄道八日市線", "door": "NULL"}, "type": "Feature", "geometry": {"type": "Point", "coordinates": [136.14631, 35.11031]}}, {"properties": {"name": "武佐", "uri": "https://uedayou.net/jrslod/近江鉄道/八日市線/武佐", "railname": "近江鉄道八日市線", "door": "NULL"}, "type": "Feature", "geometry": {"type": "Point", "coordinates": [136.131, 35.11469]}}, {"properties": {"name": "近江八幡", "uri": "https://uedayou.net/jrslod/近江鉄道/八日市線/近江八幡", "railname": "近江鉄道八日市線", "door": "NULL"}, "type": "Feature", "geometry": {"type": "Point", "coordinates": [136.10306, 35.12242]}}]}