{"type": "FeatureCollection", "features": [{"properties": {"name": "高崎", "uri": "https://uedayou.net/jrslod/上信電鉄/上信線/高崎", "railname": "上信電鉄上信線", "door": "NULL"}, "type": "Feature", "geometry": {"type": "Point", "coordinates": [139.01229, 36.31943]}}, {"properties": {"name": "南高崎", "uri": "https://uedayou.net/jrslod/上信電鉄/上信線/南高崎", "railname": "上信電鉄上信線", "door": "NULL"}, "type": "Feature", "geometry": {"type": "Point", "coordinates": [139.01232, 36.3127]}}, {"properties": {"name": "佐野のわたし", "uri": "https://uedayou.net/jrslod/上信電鉄/上信線/佐野のわたし", "railname": "上信電鉄上信線", "door": "NULL"}, "type": "Feature", "geometry": {"type": "Point", "coordinates": [139.01844, 36.302679]}}, {"properties": {"name": "根小屋", "uri": "https://uedayou.net/jrslod/上信電鉄/上信線/根小屋", "railname": "上信電鉄上信線", "door": "NULL"}, "type": "Feature", "geometry": {"type": "Point", "coordinates": [139.01884, 36.29141]}}, {"properties": {"name": "高崎商科大学前", "uri": "https://uedayou.net/jrslod/上信電鉄/上信線/高崎商科大学前", "railname": "上信電鉄上信線", "door": "NULL"}, "type": "Feature", "geometry": {"type": "Point", "coordinates": [139.02893, 36.28469]}}, {"properties": {"name": "山名", "uri": "https://uedayou.net/jrslod/上信電鉄/上信線/山名", "railname": "上信電鉄上信線", "door": "NULL"}, "type": "Feature", "geometry": {"type": "Point", "coordinates": [139.03813, 36.27727]}}, {"properties": {"name": "西山名", "uri": "https://uedayou.net/jrslod/上信電鉄/上信線/西山名", "railname": "上信電鉄上信線", "door": "NULL"}, "type": "Feature", "geometry": {"type": "Point", "coordinates": [139.03175, 36.27058]}}, {"properties": {"name": "馬庭", "uri": "https://uedayou.net/jrslod/上信電鉄/上信線/馬庭", "railname": "上信電鉄上信線", "door": "NULL"}, "type": "Feature", "geometry": {"type": "Point", "coordinates": [139.00899, 36.26133]}}, {"properties": {"name": "吉井", "uri": "https://uedayou.net/jrslod/上信電鉄/上信線/吉井", "railname": "上信電鉄上信線", "door": "NULL"}, "type": "Feature", "geometry": {"type": "Point", "coordinates": [138.98475, 36.25612]}}, {"properties": {"name": "西吉井", "uri": "https://uedayou.net/jrslod/上信電鉄/上信線/西吉井", "railname": "上信電鉄上信線", "door": "NULL"}, "type": "Feature", "geometry": {"type": "Point", "coordinates": [138.96547, 36.25579]}}, {"properties": {"name": "上州新屋", "uri": "https://uedayou.net/jrslod/上信電鉄/上信線/上州新屋", "railname": "上信電鉄上信線", "door": "NULL"}, "type": "Feature", "geometry": {"type": "Point", "coordinates": [138.95144, 36.25604]}}, {"properties": {"name": "上州福島", "uri": "https://uedayou.net/jrslod/上信電鉄/上信線/上州福島", "railname": "上信電鉄上信線", "door": "NULL"}, "type": "Feature", "geometry": {"type": "Point", "coordinates": [138.92909, 36.25642]}}, {"properties": {"name": "東富岡", "uri": "https://uedayou.net/jrslod/上信電鉄/上信線/東富岡", "railname": "上信電鉄上信線", "door": "NULL"}, "type": "Feature", "geometry": {"type": "Point", "coordinates": [138.90135, 36.26081]}}, {"properties": {"name": "上州富岡", "uri": "https://uedayou.net/jrslod/上信電鉄/上信線/上州富岡", "railname": "上信電鉄上信線", "door": "NULL"}, "type": "Feature", "geometry": {"type": "Point", "coordinates": [138.89152, 36.2605]}}, {"properties": {"name": "西富岡", "uri": "https://uedayou.net/jrslod/上信電鉄/上信線/西富岡", "railname": "上信電鉄上信線", "door": "NULL"}, "type": "Feature", "geometry": {"type": "Point", "coordinates": [138.88319, 36.26017]}}, {"properties": {"name": "上州七日市", "uri": "https://uedayou.net/jrslod/上信電鉄/上信線/上州七日市", "railname": "上信電鉄上信線", "door": "NULL"}, "type": "Feature", "geometry": {"type": "Point", "coordinates": [138.87426, 36.25839]}}, {"properties": {"name": "上州一ノ宮", "uri": "https://uedayou.net/jrslod/上信電鉄/上信線/上州一ノ宮", "railname": "上信電鉄上信線", "door": "NULL"}, "type": "Feature", "geometry": {"type": "Point", "coordinates": [138.8641, 36.25315]}}, {"properties": {"name": "神農原", "uri": "https://uedayou.net/jrslod/上信電鉄/上信線/神農原", "railname": "上信電鉄上信線", "door": "NULL"}, "type": "Feature", "geometry": {"type": "Point", "coordinates": [138.84348, 36.24256]}}, {"properties": {"name": "南蛇井", "uri": "https://uedayou.net/jrslod/上信電鉄/上信線/南蛇井", "railname": "上信電鉄上信線", "door": "NULL"}, "type": "Feature", "geometry": {"type": "Point", "coordinates": [138.81344, 36.2379]}}, {"properties": {"name": "千平", "uri": "https://uedayou.net/jrslod/上信電鉄/上信線/千平", "railname": "上信電鉄上信線", "door": "NULL"}, "type": "Feature", "geometry": {"type": "Point", "coordinates": [138.79854, 36.23005]}}, {"properties": {"name": "下仁田", "uri": "https://uedayou.net/jrslod/上信電鉄/上信線/下仁田", "railname": "上信電鉄上信線", "door": "NULL"}, "type": "Feature", "geometry": {"type": "Point", "coordinates": [138.78626, 36.21047]}}]}