{"type": "FeatureCollection", "features": [{"properties": {"name": "多摩川", "uri": "https://uedayou.net/jrslod/東急電鉄/東急多摩川線/多摩川", "railname": "東急電鉄東急東横線", "door": "2019/10/01 00:00"}, "type": "Feature", "geometry": {"type": "Point", "coordinates": [139.66889, 35.58894]}}, {"properties": {"name": "沼部", "uri": "https://uedayou.net/jrslod/東急電鉄/東急多摩川線/沼部", "railname": "東急電鉄東急東横線", "door": "NULL"}, "type": "Feature", "geometry": {"type": "Point", "coordinates": [139.6729, 35.58275]}}, {"properties": {"name": "鵜の木", "uri": "https://uedayou.net/jrslod/東急電鉄/東急多摩川線/鵜の木", "railname": "東急電鉄東急東横線", "door": "NULL"}, "type": "Feature", "geometry": {"type": "Point", "coordinates": [139.68031, 35.57563]}}, {"properties": {"name": "下丸子", "uri": "https://uedayou.net/jrslod/東急電鉄/東急多摩川線/下丸子", "railname": "東急電鉄東急東横線", "door": "NULL"}, "type": "Feature", "geometry": {"type": "Point", "coordinates": [139.68584, 35.57116]}}, {"properties": {"name": "武蔵新田", "uri": "https://uedayou.net/jrslod/東急電鉄/東急多摩川線/武蔵新田", "railname": "東急電鉄東急東横線", "door": "NULL"}, "type": "Feature", "geometry": {"type": "Point", "coordinates": [139.69212, 35.56797]}}, {"properties": {"name": "矢口渡", "uri": "https://uedayou.net/jrslod/東急電鉄/東急多摩川線/矢口渡", "railname": "東急電鉄東急東横線", "door": "NULL"}, "type": "Feature", "geometry": {"type": "Point", "coordinates": [139.69994, 35.5626]}}, {"properties": {"name": "蒲田", "uri": "https://uedayou.net/jrslod/東急電鉄/東急多摩川線/蒲田", "railname": "東急電鉄東急東横線", "door": "NULL"}, "type": "Feature", "geometry": {"type": "Point", "coordinates": [139.71483, 35.56166]}}]}