{"type": "FeatureCollection", "features": [{"properties": {"name": "五反田", "uri": "https://uedayou.net/jrslod/東急電鉄/東急池上線/五反田", "railname": "東急電鉄東急池上線", "door": "NULL"}, "type": "Feature", "geometry": {"type": "Point", "coordinates": [139.72413, 35.62521]}}, {"properties": {"name": "大崎広小路", "uri": "https://uedayou.net/jrslod/東急電鉄/東急池上線/大崎広小路", "railname": "東急電鉄東急池上線", "door": "NULL"}, "type": "Feature", "geometry": {"type": "Point", "coordinates": [139.72206, 35.62202]}}, {"properties": {"name": "戸越銀座", "uri": "https://uedayou.net/jrslod/東急電鉄/東急池上線/戸越銀座", "railname": "東急電鉄東急池上線", "door": "NULL"}, "type": "Feature", "geometry": {"type": "Point", "coordinates": [139.71515, 35.61633]}}, {"properties": {"name": "荏原中延", "uri": "https://uedayou.net/jrslod/東急電鉄/東急池上線/荏原中延", "railname": "東急電鉄東急池上線", "door": "NULL"}, "type": "Feature", "geometry": {"type": "Point", "coordinates": [139.71191, 35.60979]}}, {"properties": {"name": "旗の台", "uri": "https://uedayou.net/jrslod/東急電鉄/東急池上線/旗の台", "railname": "東急電鉄東急池上線", "door": "NULL"}, "type": "Feature", "geometry": {"type": "Point", "coordinates": [139.70364, 35.60532]}}, {"properties": {"name": "長原", "uri": "https://uedayou.net/jrslod/東急電鉄/東急池上線/長原", "railname": "東急電鉄東急池上線", "door": "NULL"}, "type": "Feature", "geometry": {"type": "Point", "coordinates": [139.69763, 35.60205]}}, {"properties": {"name": "洗足池", "uri": "https://uedayou.net/jrslod/東急電鉄/東急池上線/洗足池", "railname": "東急電鉄東急池上線", "door": "NULL"}, "type": "Feature", "geometry": {"type": "Point", "coordinates": [139.69134, 35.5998]}}, {"properties": {"name": "石川台", "uri": "https://uedayou.net/jrslod/東急電鉄/東急池上線/石川台", "railname": "東急電鉄東急池上線", "door": "NULL"}, "type": "Feature", "geometry": {"type": "Point", "coordinates": [139.68475, 35.59664]}}, {"properties": {"name": "雪が谷大塚", "uri": "https://uedayou.net/jrslod/東急電鉄/東急池上線/雪が谷大塚", "railname": "東急電鉄東急池上線", "door": "NULL"}, "type": "Feature", "geometry": {"type": "Point", "coordinates": [139.68135, 35.59231]}}, {"properties": {"name": "御嶽山", "uri": "https://uedayou.net/jrslod/東急電鉄/東急池上線/御嶽山", "railname": "東急電鉄東急池上線", "door": "NULL"}, "type": "Feature", "geometry": {"type": "Point", "coordinates": [139.68249, 35.58501]}}, {"properties": {"name": "久が原", "uri": "https://uedayou.net/jrslod/東急電鉄/東急池上線/久が原", "railname": "東急電鉄東急池上線", "door": "NULL"}, "type": "Feature", "geometry": {"type": "Point", "coordinates": [139.68589, 35.57915]}}, {"properties": {"name": "千鳥町", "uri": "https://uedayou.net/jrslod/東急電鉄/東急池上線/千鳥町", "railname": "東急電鉄東急池上線", "door": "NULL"}, "type": "Feature", "geometry": {"type": "Point", "coordinates": [139.6917, 35.57275]}}, {"properties": {"name": "池上", "uri": "https://uedayou.net/jrslod/東急電鉄/東急池上線/池上", "railname": "東急電鉄東急池上線", "door": "NULL"}, "type": "Feature", "geometry": {"type": "Point", "coordinates": [139.70273, 35.57195]}}, {"properties": {"name": "蓮沼", "uri": "https://uedayou.net/jrslod/東急電鉄/東急池上線/蓮沼", "railname": "東急電鉄東急池上線", "door": "NULL"}, "type": "Feature", "geometry": {"type": "Point", "coordinates": [139.70844, 35.56426]}}, {"properties": {"name": "蒲田", "uri": "https://uedayou.net/jrslod/東急電鉄/東急池上線/蒲田", "railname": "東急電鉄東急池上線", "door": "NULL"}, "type": "Feature", "geometry": {"type": "Point", "coordinates": [139.71417, 35.56175]}}]}