{"type": "FeatureCollection", "features": [{"properties": {"name": "白石", "uri": "https://uedayou.net/jrslod/北海道旅客鉄道/千歳線/白石", "railname": "北海道旅客鉄道千歳線", "door": "NULL"}, "type": "Feature", "geometry": {"type": "Point", "coordinates": [141.41258, 43.05567]}}, {"properties": {"name": "平和", "uri": "https://uedayou.net/jrslod/北海道旅客鉄道/千歳線/平和", "railname": "北海道旅客鉄道千歳線", "door": "NULL"}, "type": "Feature", "geometry": {"type": "Point", "coordinates": [141.43881, 43.04684]}}, {"properties": {"name": "新札幌", "uri": "https://uedayou.net/jrslod/北海道旅客鉄道/千歳線/新札幌", "railname": "北海道旅客鉄道千歳線", "door": "NULL"}, "type": "Feature", "geometry": {"type": "Point", "coordinates": [141.47133, 43.03899]}}, {"properties": {"name": "上野幌", "uri": "https://uedayou.net/jrslod/北海道旅客鉄道/千歳線/上野幌", "railname": "北海道旅客鉄道千歳線", "door": "NULL"}, "type": "Feature", "geometry": {"type": "Point", "coordinates": [141.48708, 43.01629]}}, {"properties": {"name": "北広島", "uri": "https://uedayou.net/jrslod/北海道旅客鉄道/千歳線/北広島", "railname": "北海道旅客鉄道千歳線", "door": "NULL"}, "type": "Feature", "geometry": {"type": "Point", "coordinates": [141.56303, 42.97982]}}, {"properties": {"name": "島松", "uri": "https://uedayou.net/jrslod/北海道旅客鉄道/千歳線/島松", "railname": "北海道旅客鉄道千歳線", "door": "NULL"}, "type": "Feature", "geometry": {"type": "Point", "coordinates": [141.5732, 42.92172]}}, {"properties": {"name": "恵み野", "uri": "https://uedayou.net/jrslod/北海道旅客鉄道/千歳線/恵み野", "railname": "北海道旅客鉄道千歳線", "door": "NULL"}, "type": "Feature", "geometry": {"type": "Point", "coordinates": [141.57449, 42.90166]}}, {"properties": {"name": "恵庭", "uri": "https://uedayou.net/jrslod/北海道旅客鉄道/千歳線/恵庭", "railname": "北海道旅客鉄道千歳線", "door": "NULL"}, "type": "Feature", "geometry": {"type": "Point", "coordinates": [141.58713, 42.88242]}}, {"properties": {"name": "サッポロビール庭園", "uri": "https://uedayou.net/jrslod/北海道旅客鉄道/千歳線/サッポロビール庭園", "railname": "北海道旅客鉄道千歳線", "door": "NULL"}, "type": "Feature", "geometry": {"type": "Point", "coordinates": [141.60603, 42.86644]}}, {"properties": {"name": "長都", "uri": "https://uedayou.net/jrslod/北海道旅客鉄道/千歳線/長都", "railname": "北海道旅客鉄道千歳線", "door": "NULL"}, "type": "Feature", "geometry": {"type": "Point", "coordinates": [141.62269, 42.85243]}}, {"properties": {"name": "千歳", "uri": "https://uedayou.net/jrslod/北海道旅客鉄道/千歳線/千歳", "railname": "北海道旅客鉄道千歳線", "door": "NULL"}, "type": "Feature", "geometry": {"type": "Point", "coordinates": [141.65187, 42.82826]}}, {"properties": {"name": "南千歳", "uri": "https://uedayou.net/jrslod/北海道旅客鉄道/千歳線/南千歳", "railname": "北海道旅客鉄道千歳線", "door": "NULL"}, "type": "Feature", "geometry": {"type": "Point", "coordinates": [141.6742, 42.80905]}}, {"properties": {"name": "美々", "uri": "https://uedayou.net/jrslod/北海道旅客鉄道/千歳線/美々", "railname": "北海道旅客鉄道千歳線", "door": "NULL"}, "type": "Feature", "geometry": {"type": "Point", "coordinates": [141.71189, 42.77703]}}, {"properties": {"name": "植苗", "uri": "https://uedayou.net/jrslod/北海道旅客鉄道/千歳線/植苗", "railname": "北海道旅客鉄道千歳線", "door": "NULL"}, "type": "Feature", "geometry": {"type": "Point", "coordinates": [141.73522, 42.71398]}}, {"properties": {"name": "沼ノ端", "uri": "https://uedayou.net/jrslod/北海道旅客鉄道/千歳線/沼ノ端", "railname": "北海道旅客鉄道千歳線", "door": "NULL"}, "type": "Feature", "geometry": {"type": "Point", "coordinates": [141.69131, 42.67136]}}, {"properties": {"name": "新千歳空港", "uri": "https://uedayou.net/jrslod/北海道旅客鉄道/千歳線/新千歳空港", "railname": "北海道旅客鉄道千歳線", "door": "NULL"}, "type": "Feature", "geometry": {"type": "Point", "coordinates": [141.68077, 42.7878]}}]}