{"type": "FeatureCollection", "features": [{"properties": {"name": "井高野", "uri": "https://uedayou.net/jrslod/大阪市高速電気軌道/今里筋線/井高野", "railname": "大阪市高速電気軌道今里筋線", "door": "2006/12/01 00:00"}, "type": "Feature", "geometry": {"type": "Point", "coordinates": [135.54728, 34.76071]}}, {"properties": {"name": "瑞光四丁目", "uri": "https://uedayou.net/jrslod/大阪市高速電気軌道/今里筋線/瑞光四丁目", "railname": "大阪市高速電気軌道今里筋線", "door": "2006/12/01 00:00"}, "type": "Feature", "geometry": {"type": "Point", "coordinates": [135.54465, 34.75258]}}, {"properties": {"name": "だいどう豊里", "uri": "https://uedayou.net/jrslod/大阪市高速電気軌道/今里筋線/だいどう豊里", "railname": "大阪市高速電気軌道今里筋線", "door": "2006/12/01 00:00"}, "type": "Feature", "geometry": {"type": "Point", "coordinates": [135.54448, 34.744]}}, {"properties": {"name": "太子橋今市", "uri": "https://uedayou.net/jrslod/大阪市高速電気軌道/今里筋線/太子橋今市", "railname": "大阪市高速電気軌道今里筋線", "door": "2006/12/01 00:00"}, "type": "Feature", "geometry": {"type": "Point", "coordinates": [135.55635, 34.73118]}}, {"properties": {"name": "清水", "uri": "https://uedayou.net/jrslod/大阪市高速電気軌道/今里筋線/清水", "railname": "大阪市高速電気軌道今里筋線", "door": "2006/12/01 00:00"}, "type": "Feature", "geometry": {"type": "Point", "coordinates": [135.56083, 34.72276]}}, {"properties": {"name": "新森古市", "uri": "https://uedayou.net/jrslod/大阪市高速電気軌道/今里筋線/新森古市", "railname": "大阪市高速電気軌道今里筋線", "door": "2006/12/01 00:00"}, "type": "Feature", "geometry": {"type": "Point", "coordinates": [135.55892, 34.71524]}}, {"properties": {"name": "関目成育", "uri": "https://uedayou.net/jrslod/大阪市高速電気軌道/今里筋線/関目成育", "railname": "大阪市高速電気軌道今里筋線", "door": "2006/12/01 00:00"}, "type": "Feature", "geometry": {"type": "Point", "coordinates": [135.54644, 34.71358]}}, {"properties": {"name": "蒲生四丁目", "uri": "https://uedayou.net/jrslod/大阪市高速電気軌道/今里筋線/蒲生四丁目", "railname": "大阪市高速電気軌道今里筋線", "door": "2006/12/01 00:00"}, "type": "Feature", "geometry": {"type": "Point", "coordinates": [135.54629, 34.70049]}}, {"properties": {"name": "鴫野", "uri": "https://uedayou.net/jrslod/大阪市高速電気軌道/今里筋線/鴫野", "railname": "大阪市高速電気軌道今里筋線", "door": "2006/12/01 00:00"}, "type": "Feature", "geometry": {"type": "Point", "coordinates": [135.54617, 34.69303]}}, {"properties": {"name": "緑橋", "uri": "https://uedayou.net/jrslod/大阪市高速電気軌道/今里筋線/緑橋", "railname": "大阪市高速電気軌道今里筋線", "door": "2006/12/01 00:00"}, "type": "Feature", "geometry": {"type": "Point", "coordinates": [135.54471, 34.68204]}}, {"properties": {"name": "今里", "uri": "https://uedayou.net/jrslod/大阪市高速電気軌道/今里筋線/今里", "railname": "大阪市高速電気軌道今里筋線", "door": "2006/12/01 00:00"}, "type": "Feature", "geometry": {"type": "Point", "coordinates": [135.54296, 34.66947]}}]}