{"type": "FeatureCollection", "features": [{"properties": {"name": "西鉄福岡(天神)", "uri": "https://uedayou.net/jrslod/西日本鉄道/西鉄天神大牟田線/西鉄福岡(天神)", "railname": "西日本鉄道西鉄天神大牟田線", "door": "NULL"}, "type": "Feature", "geometry": {"type": "Point", "coordinates": [130.39914, 33.58954]}}, {"properties": {"name": "薬院", "uri": "https://uedayou.net/jrslod/西日本鉄道/西鉄天神大牟田線/薬院", "railname": "西日本鉄道西鉄天神大牟田線", "door": "NULL"}, "type": "Feature", "geometry": {"type": "Point", "coordinates": [130.40184, 33.58132]}}, {"properties": {"name": "西鉄平尾", "uri": "https://uedayou.net/jrslod/西日本鉄道/西鉄天神大牟田線/西鉄平尾", "railname": "西日本鉄道西鉄天神大牟田線", "door": "NULL"}, "type": "Feature", "geometry": {"type": "Point", "coordinates": [130.4066, 33.57357]}}, {"properties": {"name": "高宮", "uri": "https://uedayou.net/jrslod/西日本鉄道/西鉄天神大牟田線/高宮", "railname": "西日本鉄道西鉄天神大牟田線", "door": "NULL"}, "type": "Feature", "geometry": {"type": "Point", "coordinates": [130.41453, 33.56727]}}, {"properties": {"name": "大橋", "uri": "https://uedayou.net/jrslod/西日本鉄道/西鉄天神大牟田線/大橋", "railname": "西日本鉄道西鉄天神大牟田線", "door": "NULL"}, "type": "Feature", "geometry": {"type": "Point", "coordinates": [130.42569, 33.55969]}}, {"properties": {"name": "井尻", "uri": "https://uedayou.net/jrslod/西日本鉄道/西鉄天神大牟田線/井尻", "railname": "西日本鉄道西鉄天神大牟田線", "door": "NULL"}, "type": "Feature", "geometry": {"type": "Point", "coordinates": [130.44347, 33.55196]}}, {"properties": {"name": "雑餉隈", "uri": "https://uedayou.net/jrslod/西日本鉄道/西鉄天神大牟田線/雑餉隈", "railname": "西日本鉄道西鉄天神大牟田線", "door": "NULL"}, "type": "Feature", "geometry": {"type": "Point", "coordinates": [130.46233, 33.5473]}}, {"properties": {"name": "春日原", "uri": "https://uedayou.net/jrslod/西日本鉄道/西鉄天神大牟田線/春日原", "railname": "西日本鉄道西鉄天神大牟田線", "door": "NULL"}, "type": "Feature", "geometry": {"type": "Point", "coordinates": [130.47353, 33.53753]}}, {"properties": {"name": "白木原", "uri": "https://uedayou.net/jrslod/西日本鉄道/西鉄天神大牟田線/白木原", "railname": "西日本鉄道西鉄天神大牟田線", "door": "NULL"}, "type": "Feature", "geometry": {"type": "Point", "coordinates": [130.48239, 33.52895]}}, {"properties": {"name": "下大利", "uri": "https://uedayou.net/jrslod/西日本鉄道/西鉄天神大牟田線/下大利", "railname": "西日本鉄道西鉄天神大牟田線", "door": "NULL"}, "type": "Feature", "geometry": {"type": "Point", "coordinates": [130.48956, 33.52214]}}, {"properties": {"name": "都府楼前", "uri": "https://uedayou.net/jrslod/西日本鉄道/西鉄天神大牟田線/都府楼前", "railname": "西日本鉄道西鉄天神大牟田線", "door": "NULL"}, "type": "Feature", "geometry": {"type": "Point", "coordinates": [130.5086, 33.5113]}}, {"properties": {"name": "西鉄二日市", "uri": "https://uedayou.net/jrslod/西日本鉄道/西鉄天神大牟田線/西鉄二日市", "railname": "西日本鉄道西鉄天神大牟田線", "door": "NULL"}, "type": "Feature", "geometry": {"type": "Point", "coordinates": [130.51754, 33.50269]}}, {"properties": {"name": "紫", "uri": "https://uedayou.net/jrslod/西日本鉄道/西鉄天神大牟田線/紫", "railname": "西日本鉄道西鉄天神大牟田線", "door": "NULL"}, "type": "Feature", "geometry": {"type": "Point", "coordinates": [130.52202, 33.496592]}}, {"properties": {"name": "朝倉街道", "uri": "https://uedayou.net/jrslod/西日本鉄道/西鉄天神大牟田線/朝倉街道", "railname": "西日本鉄道西鉄天神大牟田線", "door": "NULL"}, "type": "Feature", "geometry": {"type": "Point", "coordinates": [130.53228, 33.48459]}}, {"properties": {"name": "桜台", "uri": "https://uedayou.net/jrslod/西日本鉄道/西鉄天神大牟田線/桜台", "railname": "西日本鉄道西鉄天神大牟田線", "door": "NULL"}, "type": "Feature", "geometry": {"type": "Point", "coordinates": [130.5428, 33.47134]}}, {"properties": {"name": "筑紫", "uri": "https://uedayou.net/jrslod/西日本鉄道/西鉄天神大牟田線/筑紫", "railname": "西日本鉄道西鉄天神大牟田線", "door": "NULL"}, "type": "Feature", "geometry": {"type": "Point", "coordinates": [130.55238, 33.46334]}}, {"properties": {"name": "津古", "uri": "https://uedayou.net/jrslod/西日本鉄道/西鉄天神大牟田線/津古", "railname": "西日本鉄道西鉄天神大牟田線", "door": "NULL"}, "type": "Feature", "geometry": {"type": "Point", "coordinates": [130.56567, 33.44692]}}, {"properties": {"name": "三国が丘", "uri": "https://uedayou.net/jrslod/西日本鉄道/西鉄天神大牟田線/三国が丘", "railname": "西日本鉄道西鉄天神大牟田線", "door": "NULL"}, "type": "Feature", "geometry": {"type": "Point", "coordinates": [130.56329, 33.43721]}}, {"properties": {"name": "三沢", "uri": "https://uedayou.net/jrslod/西日本鉄道/西鉄天神大牟田線/三沢", "railname": "西日本鉄道西鉄天神大牟田線", "door": "NULL"}, "type": "Feature", "geometry": {"type": "Point", "coordinates": [130.56049, 33.42336]}}, {"properties": {"name": "大保", "uri": "https://uedayou.net/jrslod/西日本鉄道/西鉄天神大牟田線/大保", "railname": "西日本鉄道西鉄天神大牟田線", "door": "NULL"}, "type": "Feature", "geometry": {"type": "Point", "coordinates": [130.55805, 33.41115]}}, {"properties": {"name": "西鉄小郡", "uri": "https://uedayou.net/jrslod/西日本鉄道/西鉄天神大牟田線/西鉄小郡", "railname": "西日本鉄道西鉄天神大牟田線", "door": "NULL"}, "type": "Feature", "geometry": {"type": "Point", "coordinates": [130.55388, 33.39703]}}, {"properties": {"name": "端間", "uri": "https://uedayou.net/jrslod/西日本鉄道/西鉄天神大牟田線/端間", "railname": "西日本鉄道西鉄天神大牟田線", "door": "NULL"}, "type": "Feature", "geometry": {"type": "Point", "coordinates": [130.55083, 33.37876]}}, {"properties": {"name": "味坂", "uri": "https://uedayou.net/jrslod/西日本鉄道/西鉄天神大牟田線/味坂", "railname": "西日本鉄道西鉄天神大牟田線", "door": "NULL"}, "type": "Feature", "geometry": {"type": "Point", "coordinates": [130.54043, 33.35249]}}, {"properties": {"name": "宮の陣", "uri": "https://uedayou.net/jrslod/西日本鉄道/西鉄天神大牟田線/宮の陣", "railname": "西日本鉄道西鉄天神大牟田線", "door": "NULL"}, "type": "Feature", "geometry": {"type": "Point", "coordinates": [130.53135, 33.32987]}}, {"properties": {"name": "櫛原", "uri": "https://uedayou.net/jrslod/西日本鉄道/西鉄天神大牟田線/櫛原", "railname": "西日本鉄道西鉄天神大牟田線", "door": "NULL"}, "type": "Feature", "geometry": {"type": "Point", "coordinates": [130.5244, 33.31985]}}, {"properties": {"name": "西鉄久留米", "uri": "https://uedayou.net/jrslod/西日本鉄道/西鉄天神大牟田線/西鉄久留米", "railname": "西日本鉄道西鉄天神大牟田線", "door": "NULL"}, "type": "Feature", "geometry": {"type": "Point", "coordinates": [130.52155, 33.3128]}}, {"properties": {"name": "花畑", "uri": "https://uedayou.net/jrslod/西日本鉄道/西鉄天神大牟田線/花畑", "railname": "西日本鉄道西鉄天神大牟田線", "door": "NULL"}, "type": "Feature", "geometry": {"type": "Point", "coordinates": [130.51548, 33.30632]}}, {"properties": {"name": "試験場前", "uri": "https://uedayou.net/jrslod/西日本鉄道/西鉄天神大牟田線/試験場前", "railname": "西日本鉄道西鉄天神大牟田線", "door": "NULL"}, "type": "Feature", "geometry": {"type": "Point", "coordinates": [130.50956, 33.30189]}}, {"properties": {"name": "津福", "uri": "https://uedayou.net/jrslod/西日本鉄道/西鉄天神大牟田線/津福", "railname": "西日本鉄道西鉄天神大牟田線", "door": "NULL"}, "type": "Feature", "geometry": {"type": "Point", "coordinates": [130.49767, 33.29644]}}, {"properties": {"name": "安武", "uri": "https://uedayou.net/jrslod/西日本鉄道/西鉄天神大牟田線/安武", "railname": "西日本鉄道西鉄天神大牟田線", "door": "NULL"}, "type": "Feature", "geometry": {"type": "Point", "coordinates": [130.48981, 33.28699]}}, {"properties": {"name": "大善寺", "uri": "https://uedayou.net/jrslod/西日本鉄道/西鉄天神大牟田線/大善寺", "railname": "西日本鉄道西鉄天神大牟田線", "door": "NULL"}, "type": "Feature", "geometry": {"type": "Point", "coordinates": [130.4743, 33.27122]}}, {"properties": {"name": "三潴", "uri": "https://uedayou.net/jrslod/西日本鉄道/西鉄天神大牟田線/三潴", "railname": "西日本鉄道西鉄天神大牟田線", "door": "NULL"}, "type": "Feature", "geometry": {"type": "Point", "coordinates": [130.46966, 33.25639]}}, {"properties": {"name": "犬塚", "uri": "https://uedayou.net/jrslod/西日本鉄道/西鉄天神大牟田線/犬塚", "railname": "西日本鉄道西鉄天神大牟田線", "door": "NULL"}, "type": "Feature", "geometry": {"type": "Point", "coordinates": [130.46321, 33.24777]}}, {"properties": {"name": "大溝", "uri": "https://uedayou.net/jrslod/西日本鉄道/西鉄天神大牟田線/大溝", "railname": "西日本鉄道西鉄天神大牟田線", "door": "NULL"}, "type": "Feature", "geometry": {"type": "Point", "coordinates": [130.4501, 33.22746]}}, {"properties": {"name": "八丁牟田", "uri": "https://uedayou.net/jrslod/西日本鉄道/西鉄天神大牟田線/八丁牟田", "railname": "西日本鉄道西鉄天神大牟田線", "door": "NULL"}, "type": "Feature", "geometry": {"type": "Point", "coordinates": [130.43801, 33.20943]}}, {"properties": {"name": "蒲池", "uri": "https://uedayou.net/jrslod/西日本鉄道/西鉄天神大牟田線/蒲池", "railname": "西日本鉄道西鉄天神大牟田線", "door": "NULL"}, "type": "Feature", "geometry": {"type": "Point", "coordinates": [130.42252, 33.18946]}}, {"properties": {"name": "矢加部", "uri": "https://uedayou.net/jrslod/西日本鉄道/西鉄天神大牟田線/矢加部", "railname": "西日本鉄道西鉄天神大牟田線", "door": "NULL"}, "type": "Feature", "geometry": {"type": "Point", "coordinates": [130.41582, 33.17415]}}, {"properties": {"name": "西鉄柳川", "uri": "https://uedayou.net/jrslod/西日本鉄道/西鉄天神大牟田線/西鉄柳川", "railname": "西日本鉄道西鉄天神大牟田線", "door": "NULL"}, "type": "Feature", "geometry": {"type": "Point", "coordinates": [130.41946, 33.16458]}}, {"properties": {"name": "徳益", "uri": "https://uedayou.net/jrslod/西日本鉄道/西鉄天神大牟田線/徳益", "railname": "西日本鉄道西鉄天神大牟田線", "door": "NULL"}, "type": "Feature", "geometry": {"type": "Point", "coordinates": [130.42678, 33.15499]}}, {"properties": {"name": "塩塚", "uri": "https://uedayou.net/jrslod/西日本鉄道/西鉄天神大牟田線/塩塚", "railname": "西日本鉄道西鉄天神大牟田線", "door": "NULL"}, "type": "Feature", "geometry": {"type": "Point", "coordinates": [130.43097, 33.14444]}}, {"properties": {"name": "西鉄中島", "uri": "https://uedayou.net/jrslod/西日本鉄道/西鉄天神大牟田線/西鉄中島", "railname": "西日本鉄道西鉄天神大牟田線", "door": "NULL"}, "type": "Feature", "geometry": {"type": "Point", "coordinates": [130.4399, 33.12286]}}, {"properties": {"name": "江の浦", "uri": "https://uedayou.net/jrslod/西日本鉄道/西鉄天神大牟田線/江の浦", "railname": "西日本鉄道西鉄天神大牟田線", "door": "NULL"}, "type": "Feature", "geometry": {"type": "Point", "coordinates": [130.44633, 33.10947]}}, {"properties": {"name": "開", "uri": "https://uedayou.net/jrslod/西日本鉄道/西鉄天神大牟田線/開", "railname": "西日本鉄道西鉄天神大牟田線", "door": "NULL"}, "type": "Feature", "geometry": {"type": "Point", "coordinates": [130.4533, 33.09687]}}, {"properties": {"name": "西鉄渡瀬", "uri": "https://uedayou.net/jrslod/西日本鉄道/西鉄天神大牟田線/西鉄渡瀬", "railname": "西日本鉄道西鉄天神大牟田線", "door": "NULL"}, "type": "Feature", "geometry": {"type": "Point", "coordinates": [130.45881, 33.08668]}}, {"properties": {"name": "倉永", "uri": "https://uedayou.net/jrslod/西日本鉄道/西鉄天神大牟田線/倉永", "railname": "西日本鉄道西鉄天神大牟田線", "door": "NULL"}, "type": "Feature", "geometry": {"type": "Point", "coordinates": [130.46384, 33.07154]}}, {"properties": {"name": "東甘木", "uri": "https://uedayou.net/jrslod/西日本鉄道/西鉄天神大牟田線/東甘木", "railname": "西日本鉄道西鉄天神大牟田線", "door": "NULL"}, "type": "Feature", "geometry": {"type": "Point", "coordinates": [130.46406, 33.06186]}}, {"properties": {"name": "西鉄銀水", "uri": "https://uedayou.net/jrslod/西日本鉄道/西鉄天神大牟田線/西鉄銀水", "railname": "西日本鉄道西鉄天神大牟田線", "door": "NULL"}, "type": "Feature", "geometry": {"type": "Point", "coordinates": [130.45836, 33.05125]}}, {"properties": {"name": "新栄町", "uri": "https://uedayou.net/jrslod/西日本鉄道/西鉄天神大牟田線/新栄町", "railname": "西日本鉄道西鉄天神大牟田線", "door": "NULL"}, "type": "Feature", "geometry": {"type": "Point", "coordinates": [130.4501, 33.03872]}}, {"properties": {"name": "大牟田", "uri": "https://uedayou.net/jrslod/西日本鉄道/西鉄天神大牟田線/大牟田", "railname": "西日本鉄道西鉄天神大牟田線", "door": "NULL"}, "type": "Feature", "geometry": {"type": "Point", "coordinates": [130.44409, 33.03071]}}]}