{"type": "FeatureCollection", "features": [{"properties": {"name": "目時", "uri": "https://uedayou.net/jrslod/青い森鉄道/青い森鉄道線/目時", "railname": "青い森鉄道青い森鉄道線", "door": "NULL"}, "type": "Feature", "geometry": {"type": "Point", "coordinates": [141.28974, 40.35298]}}, {"properties": {"name": "三戸", "uri": "https://uedayou.net/jrslod/青い森鉄道/青い森鉄道線/三戸", "railname": "青い森鉄道青い森鉄道線", "door": "NULL"}, "type": "Feature", "geometry": {"type": "Point", "coordinates": [141.27298, 40.39427]}}, {"properties": {"name": "諏訪ノ平", "uri": "https://uedayou.net/jrslod/青い森鉄道/青い森鉄道線/諏訪ノ平", "railname": "青い森鉄道青い森鉄道線", "door": "NULL"}, "type": "Feature", "geometry": {"type": "Point", "coordinates": [141.30485, 40.41501]}}, {"properties": {"name": "剣吉", "uri": "https://uedayou.net/jrslod/青い森鉄道/青い森鉄道線/剣吉", "railname": "青い森鉄道青い森鉄道線", "door": "NULL"}, "type": "Feature", "geometry": {"type": "Point", "coordinates": [141.34727, 40.44959]}}, {"properties": {"name": "苫米地", "uri": "https://uedayou.net/jrslod/青い森鉄道/青い森鉄道線/苫米地", "railname": "青い森鉄道青い森鉄道線", "door": "NULL"}, "type": "Feature", "geometry": {"type": "Point", "coordinates": [141.37533, 40.46712]}}, {"properties": {"name": "北高岩", "uri": "https://uedayou.net/jrslod/青い森鉄道/青い森鉄道線/北高岩", "railname": "青い森鉄道青い森鉄道線", "door": "NULL"}, "type": "Feature", "geometry": {"type": "Point", "coordinates": [141.40497, 40.47496]}}, {"properties": {"name": "八戸", "uri": "https://uedayou.net/jrslod/青い森鉄道/青い森鉄道線/八戸", "railname": "青い森鉄道青い森鉄道線", "door": "NULL"}, "type": "Feature", "geometry": {"type": "Point", "coordinates": [141.43217, 40.50998]}}, {"properties": {"name": "陸奥市川", "uri": "https://uedayou.net/jrslod/青い森鉄道/青い森鉄道線/陸奥市川", "railname": "青い森鉄道青い森鉄道線", "door": "NULL"}, "type": "Feature", "geometry": {"type": "Point", "coordinates": [141.43865, 40.56367]}}, {"properties": {"name": "下田", "uri": "https://uedayou.net/jrslod/青い森鉄道/青い森鉄道線/下田", "railname": "青い森鉄道青い森鉄道線", "door": "NULL"}, "type": "Feature", "geometry": {"type": "Point", "coordinates": [141.40725, 40.59238]}}, {"properties": {"name": "向山", "uri": "https://uedayou.net/jrslod/青い森鉄道/青い森鉄道線/向山", "railname": "青い森鉄道青い森鉄道線", "door": "NULL"}, "type": "Feature", "geometry": {"type": "Point", "coordinates": [141.37075, 40.62943]}}, {"properties": {"name": "三沢", "uri": "https://uedayou.net/jrslod/青い森鉄道/青い森鉄道線/三沢", "railname": "青い森鉄道青い森鉄道線", "door": "NULL"}, "type": "Feature", "geometry": {"type": "Point", "coordinates": [141.35381, 40.66937]}}, {"properties": {"name": "小川原", "uri": "https://uedayou.net/jrslod/青い森鉄道/青い森鉄道線/小川原", "railname": "青い森鉄道青い森鉄道線", "door": "NULL"}, "type": "Feature", "geometry": {"type": "Point", "coordinates": [141.30096, 40.70922]}}, {"properties": {"name": "上北町", "uri": "https://uedayou.net/jrslod/青い森鉄道/青い森鉄道線/上北町", "railname": "青い森鉄道青い森鉄道線", "door": "NULL"}, "type": "Feature", "geometry": {"type": "Point", "coordinates": [141.26335, 40.73404]}}, {"properties": {"name": "乙供", "uri": "https://uedayou.net/jrslod/青い森鉄道/青い森鉄道線/乙供", "railname": "青い森鉄道青い森鉄道線", "door": "NULL"}, "type": "Feature", "geometry": {"type": "Point", "coordinates": [141.21331, 40.7799]}}, {"properties": {"name": "千曳", "uri": "https://uedayou.net/jrslod/青い森鉄道/青い森鉄道線/千曳", "railname": "青い森鉄道青い森鉄道線", "door": "NULL"}, "type": "Feature", "geometry": {"type": "Point", "coordinates": [141.15314, 40.80441]}}, {"properties": {"name": "野辺地", "uri": "https://uedayou.net/jrslod/青い森鉄道/青い森鉄道線/野辺地", "railname": "青い森鉄道青い森鉄道線", "door": "NULL"}, "type": "Feature", "geometry": {"type": "Point", "coordinates": [141.11796, 40.85641]}}, {"properties": {"name": "狩場沢", "uri": "https://uedayou.net/jrslod/青い森鉄道/青い森鉄道線/狩場沢", "railname": "青い森鉄道青い森鉄道線", "door": "NULL"}, "type": "Feature", "geometry": {"type": "Point", "coordinates": [141.07195, 40.89989]}}, {"properties": {"name": "清水川", "uri": "https://uedayou.net/jrslod/青い森鉄道/青い森鉄道線/清水川", "railname": "青い森鉄道青い森鉄道線", "door": "NULL"}, "type": "Feature", "geometry": {"type": "Point", "coordinates": [141.02346, 40.92246]}}, {"properties": {"name": "小湊", "uri": "https://uedayou.net/jrslod/青い森鉄道/青い森鉄道線/小湊", "railname": "青い森鉄道青い森鉄道線", "door": "NULL"}, "type": "Feature", "geometry": {"type": "Point", "coordinates": [140.9552, 40.92998]}}, {"properties": {"name": "西平内", "uri": "https://uedayou.net/jrslod/青い森鉄道/青い森鉄道線/西平内", "railname": "青い森鉄道青い森鉄道線", "door": "NULL"}, "type": "Feature", "geometry": {"type": "Point", "coordinates": [140.91311, 40.91815]}}, {"properties": {"name": "浅虫温泉", "uri": "https://uedayou.net/jrslod/青い森鉄道/青い森鉄道線/浅虫温泉", "railname": "青い森鉄道青い森鉄道線", "door": "NULL"}, "type": "Feature", "geometry": {"type": "Point", "coordinates": [140.86233, 40.89211]}}, {"properties": {"name": "野内", "uri": "https://uedayou.net/jrslod/青い森鉄道/青い森鉄道線/野内", "railname": "青い森鉄道青い森鉄道線", "door": "NULL"}, "type": "Feature", "geometry": {"type": "Point", "coordinates": [140.816698, 40.845921]}}, {"properties": {"name": "矢田前", "uri": "https://uedayou.net/jrslod/青い森鉄道/青い森鉄道線/矢田前", "railname": "青い森鉄道青い森鉄道線", "door": "NULL"}, "type": "Feature", "geometry": {"type": "Point", "coordinates": [140.80733, 40.83426]}}, {"properties": {"name": "小柳", "uri": "https://uedayou.net/jrslod/青い森鉄道/青い森鉄道線/小柳", "railname": "青い森鉄道青い森鉄道線", "door": "NULL"}, "type": "Feature", "geometry": {"type": "Point", "coordinates": [140.79758, 40.81786]}}, {"properties": {"name": "東青森", "uri": "https://uedayou.net/jrslod/青い森鉄道/青い森鉄道線/東青森", "railname": "青い森鉄道青い森鉄道線", "door": "NULL"}, "type": "Feature", "geometry": {"type": "Point", "coordinates": [140.78206, 40.80983]}}, {"properties": {"name": "筒井", "uri": "https://uedayou.net/jrslod/青い森鉄道/青い森鉄道線/筒井", "railname": "青い森鉄道青い森鉄道線", "door": "NULL"}, "type": "Feature", "geometry": {"type": "Point", "coordinates": [140.769196, 40.805762]}}, {"properties": {"name": "青森", "uri": "https://uedayou.net/jrslod/青い森鉄道/青い森鉄道線/青森", "railname": "青い森鉄道青い森鉄道線", "door": "NULL"}, "type": "Feature", "geometry": {"type": "Point", "coordinates": [140.73407, 40.82905]}}]}