{"type": "FeatureCollection", "features": [{"properties": {"name": "二俣川", "uri": "https://uedayou.net/jrslod/相模鉄道/相鉄いずみ野線/二俣川", "railname": "相模鉄道相鉄いずみ野線", "door": "NULL"}, "type": "Feature", "geometry": {"type": "Point", "coordinates": [139.53318, 35.464]}}, {"properties": {"name": "南万騎が原", "uri": "https://uedayou.net/jrslod/相模鉄道/相鉄いずみ野線/南万騎が原", "railname": "相模鉄道相鉄いずみ野線", "door": "NULL"}, "type": "Feature", "geometry": {"type": "Point", "coordinates": [139.52633, 35.45266]}}, {"properties": {"name": "緑園都市", "uri": "https://uedayou.net/jrslod/相模鉄道/相鉄いずみ野線/緑園都市", "railname": "相模鉄道相鉄いずみ野線", "door": "NULL"}, "type": "Feature", "geometry": {"type": "Point", "coordinates": [139.52183, 35.43941]}}, {"properties": {"name": "弥生台", "uri": "https://uedayou.net/jrslod/相模鉄道/相鉄いずみ野線/弥生台", "railname": "相模鉄道相鉄いずみ野線", "door": "NULL"}, "type": "Feature", "geometry": {"type": "Point", "coordinates": [139.50741, 35.43011]}}, {"properties": {"name": "いずみ野", "uri": "https://uedayou.net/jrslod/相模鉄道/相鉄いずみ野線/いずみ野", "railname": "相模鉄道相鉄いずみ野線", "door": "NULL"}, "type": "Feature", "geometry": {"type": "Point", "coordinates": [139.49405, 35.42971]}}, {"properties": {"name": "いずみ中央", "uri": "https://uedayou.net/jrslod/相模鉄道/相鉄いずみ野線/いずみ中央", "railname": "相模鉄道相鉄いずみ野線", "door": "NULL"}, "type": "Feature", "geometry": {"type": "Point", "coordinates": [139.48707, 35.41438]}}, {"properties": {"name": "ゆめが丘", "uri": "https://uedayou.net/jrslod/相模鉄道/相鉄いずみ野線/ゆめが丘", "railname": "相模鉄道相鉄いずみ野線", "door": "NULL"}, "type": "Feature", "geometry": {"type": "Point", "coordinates": [139.48192, 35.40516]}}, {"properties": {"name": "湘南台", "uri": "https://uedayou.net/jrslod/相模鉄道/相鉄いずみ野線/湘南台", "railname": "相模鉄道相鉄いずみ野線", "door": "NULL"}, "type": "Feature", "geometry": {"type": "Point", "coordinates": [139.4652, 35.39602]}}]}