{"type": "FeatureCollection", "features": [{"properties": {"name": "宝ヶ池", "uri": "https://uedayou.net/jrslod/叡山電鉄/鞍馬線/宝ヶ池", "railname": "叡山電鉄鞍馬線", "door": "NULL"}, "type": "Feature", "geometry": {"type": "Point", "coordinates": [135.79227, 35.05772]}}, {"properties": {"name": "八幡前", "uri": "https://uedayou.net/jrslod/叡山電鉄/鞍馬線/八幡前", "railname": "叡山電鉄鞍馬線", "door": "NULL"}, "type": "Feature", "geometry": {"type": "Point", "coordinates": [135.79237, 35.06646]}}, {"properties": {"name": "岩倉", "uri": "https://uedayou.net/jrslod/叡山電鉄/鞍馬線/岩倉", "railname": "叡山電鉄鞍馬線", "door": "NULL"}, "type": "Feature", "geometry": {"type": "Point", "coordinates": [135.78633, 35.07122]}}, {"properties": {"name": "木野", "uri": "https://uedayou.net/jrslod/叡山電鉄/鞍馬線/木野", "railname": "叡山電鉄鞍馬線", "door": "NULL"}, "type": "Feature", "geometry": {"type": "Point", "coordinates": [135.77689, 35.07118]}}, {"properties": {"name": "京都精華大前", "uri": "https://uedayou.net/jrslod/叡山電鉄/鞍馬線/京都精華大前", "railname": "叡山電鉄鞍馬線", "door": "NULL"}, "type": "Feature", "geometry": {"type": "Point", "coordinates": [135.76919, 35.07287]}}, {"properties": {"name": "二軒茶屋", "uri": "https://uedayou.net/jrslod/叡山電鉄/鞍馬線/二軒茶屋", "railname": "叡山電鉄鞍馬線", "door": "NULL"}, "type": "Feature", "geometry": {"type": "Point", "coordinates": [135.7657, 35.07834]}}, {"properties": {"name": "市原", "uri": "https://uedayou.net/jrslod/叡山電鉄/鞍馬線/市原", "railname": "叡山電鉄鞍馬線", "door": "NULL"}, "type": "Feature", "geometry": {"type": "Point", "coordinates": [135.76333, 35.08839]}}, {"properties": {"name": "二ノ瀬", "uri": "https://uedayou.net/jrslod/叡山電鉄/鞍馬線/二ノ瀬", "railname": "叡山電鉄鞍馬線", "door": "NULL"}, "type": "Feature", "geometry": {"type": "Point", "coordinates": [135.76323, 35.09732]}}, {"properties": {"name": "貴船口", "uri": "https://uedayou.net/jrslod/叡山電鉄/鞍馬線/貴船口", "railname": "叡山電鉄鞍馬線", "door": "NULL"}, "type": "Feature", "geometry": {"type": "Point", "coordinates": [135.76357, 35.10586]}}, {"properties": {"name": "鞍馬", "uri": "https://uedayou.net/jrslod/叡山電鉄/鞍馬線/鞍馬", "railname": "叡山電鉄鞍馬線", "door": "NULL"}, "type": "Feature", "geometry": {"type": "Point", "coordinates": [135.77189, 35.11271]}}]}