{"type": "FeatureCollection", "features": [{"properties": {"name": "和歌山", "uri": "https://uedayou.net/jrslod/和歌山電鐵/貴志川線/和歌山", "railname": "和歌山電鐵貴志川線", "door": "NULL"}, "type": "Feature", "geometry": {"type": "Point", "coordinates": [135.19181, 34.23265]}}, {"properties": {"name": "田中口", "uri": "https://uedayou.net/jrslod/和歌山電鐵/貴志川線/田中口", "railname": "和歌山電鐵貴志川線", "door": "NULL"}, "type": "Feature", "geometry": {"type": "Point", "coordinates": [135.19271, 34.22747]}}, {"properties": {"name": "日前宮", "uri": "https://uedayou.net/jrslod/和歌山電鐵/貴志川線/日前宮", "railname": "和歌山電鐵貴志川線", "door": "NULL"}, "type": "Feature", "geometry": {"type": "Point", "coordinates": [135.20219, 34.22625]}}, {"properties": {"name": "神前", "uri": "https://uedayou.net/jrslod/和歌山電鐵/貴志川線/神前", "railname": "和歌山電鐵貴志川線", "door": "NULL"}, "type": "Feature", "geometry": {"type": "Point", "coordinates": [135.20516, 34.21266]}}, {"properties": {"name": "竈山", "uri": "https://uedayou.net/jrslod/和歌山電鐵/貴志川線/竈山", "railname": "和歌山電鐵貴志川線", "door": "NULL"}, "type": "Feature", "geometry": {"type": "Point", "coordinates": [135.20758, 34.20709]}}, {"properties": {"name": "交通センター前", "uri": "https://uedayou.net/jrslod/和歌山電鐵/貴志川線/交通センター前", "railname": "和歌山電鐵貴志川線", "door": "NULL"}, "type": "Feature", "geometry": {"type": "Point", "coordinates": [135.21795, 34.2039]}}, {"properties": {"name": "岡崎前", "uri": "https://uedayou.net/jrslod/和歌山電鐵/貴志川線/岡崎前", "railname": "和歌山電鐵貴志川線", "door": "NULL"}, "type": "Feature", "geometry": {"type": "Point", "coordinates": [135.22549, 34.20344]}}, {"properties": {"name": "吉礼", "uri": "https://uedayou.net/jrslod/和歌山電鐵/貴志川線/吉礼", "railname": "和歌山電鐵貴志川線", "door": "NULL"}, "type": "Feature", "geometry": {"type": "Point", "coordinates": [135.2363, 34.20338]}}, {"properties": {"name": "伊太祈曽", "uri": "https://uedayou.net/jrslod/和歌山電鐵/貴志川線/伊太祈曽", "railname": "和歌山電鐵貴志川線", "door": "NULL"}, "type": "Feature", "geometry": {"type": "Point", "coordinates": [135.25214, 34.20413]}}, {"properties": {"name": "山東", "uri": "https://uedayou.net/jrslod/和歌山電鐵/貴志川線/山東", "railname": "和歌山電鐵貴志川線", "door": "NULL"}, "type": "Feature", "geometry": {"type": "Point", "coordinates": [135.2618, 34.20567]}}, {"properties": {"name": "大池遊園", "uri": "https://uedayou.net/jrslod/和歌山電鐵/貴志川線/大池遊園", "railname": "和歌山電鐵貴志川線", "door": "NULL"}, "type": "Feature", "geometry": {"type": "Point", "coordinates": [135.28574, 34.20469]}}, {"properties": {"name": "西山口", "uri": "https://uedayou.net/jrslod/和歌山電鐵/貴志川線/西山口", "railname": "和歌山電鐵貴志川線", "door": "NULL"}, "type": "Feature", "geometry": {"type": "Point", "coordinates": [135.29058, 34.20936]}}, {"properties": {"name": "甘露寺前", "uri": "https://uedayou.net/jrslod/和歌山電鐵/貴志川線/甘露寺前", "railname": "和歌山電鐵貴志川線", "door": "NULL"}, "type": "Feature", "geometry": {"type": "Point", "coordinates": [135.30177, 34.2133]}}, {"properties": {"name": "貴志", "uri": "https://uedayou.net/jrslod/和歌山電鐵/貴志川線/貴志", "railname": "和歌山電鐵貴志川線", "door": "NULL"}, "type": "Feature", "geometry": {"type": "Point", "coordinates": [135.31185, 34.20974]}}]}