{"type": "FeatureCollection", "features": [{"properties": {"name": "名古屋", "uri": "https://uedayou.net/jrslod/名古屋臨海高速鉄道/あおなみ線/名古屋", "railname": "名古屋臨海高速鉄道あおなみ線", "door": "2004/10/01 00:00"}, "type": "Feature", "geometry": {"type": "Point", "coordinates": [136.882768, 35.168342]}}, {"properties": {"name": "ささしまライブ", "uri": "https://uedayou.net/jrslod/名古屋臨海高速鉄道/あおなみ線/ささしまライブ", "railname": "名古屋臨海高速鉄道あおなみ線", "door": "2004/10/01 00:00"}, "type": "Feature", "geometry": {"type": "Point", "coordinates": [136.8813, 35.16146]}}, {"properties": {"name": "小本", "uri": "https://uedayou.net/jrslod/名古屋臨海高速鉄道/あおなみ線/小本", "railname": "名古屋臨海高速鉄道あおなみ線", "door": "2004/10/01 00:00"}, "type": "Feature", "geometry": {"type": "Point", "coordinates": [136.86144, 35.14903]}}, {"properties": {"name": "荒子", "uri": "https://uedayou.net/jrslod/名古屋臨海高速鉄道/あおなみ線/荒子", "railname": "名古屋臨海高速鉄道あおなみ線", "door": "2004/10/01 00:00"}, "type": "Feature", "geometry": {"type": "Point", "coordinates": [136.86189, 35.14062]}}, {"properties": {"name": "南荒子", "uri": "https://uedayou.net/jrslod/名古屋臨海高速鉄道/あおなみ線/南荒子", "railname": "名古屋臨海高速鉄道あおなみ線", "door": "2004/10/01 00:00"}, "type": "Feature", "geometry": {"type": "Point", "coordinates": [136.86196, 35.13216]}}, {"properties": {"name": "中島", "uri": "https://uedayou.net/jrslod/名古屋臨海高速鉄道/あおなみ線/中島", "railname": "名古屋臨海高速鉄道あおなみ線", "door": "2004/10/01 00:00"}, "type": "Feature", "geometry": {"type": "Point", "coordinates": [136.86143, 35.12571]}}, {"properties": {"name": "名古屋競馬場前", "uri": "https://uedayou.net/jrslod/名古屋臨海高速鉄道/あおなみ線/名古屋競馬場前", "railname": "名古屋臨海高速鉄道あおなみ線", "door": "2004/10/01 00:00"}, "type": "Feature", "geometry": {"type": "Point", "coordinates": [136.86278, 35.11462]}}, {"properties": {"name": "荒子川公園", "uri": "https://uedayou.net/jrslod/名古屋臨海高速鉄道/あおなみ線/荒子川公園", "railname": "名古屋臨海高速鉄道あおなみ線", "door": "2004/10/01 00:00"}, "type": "Feature", "geometry": {"type": "Point", "coordinates": [136.86139, 35.10508]}}, {"properties": {"name": "稲永", "uri": "https://uedayou.net/jrslod/名古屋臨海高速鉄道/あおなみ線/稲永", "railname": "名古屋臨海高速鉄道あおなみ線", "door": "2004/10/01 00:00"}, "type": "Feature", "geometry": {"type": "Point", "coordinates": [136.86321, 35.09177]}}, {"properties": {"name": "野跡", "uri": "https://uedayou.net/jrslod/名古屋臨海高速鉄道/あおなみ線/野跡", "railname": "名古屋臨海高速鉄道あおなみ線", "door": "2004/10/01 00:00"}, "type": "Feature", "geometry": {"type": "Point", "coordinates": [136.8542, 35.07479]}}, {"properties": {"name": "金城ふ頭", "uri": "https://uedayou.net/jrslod/名古屋臨海高速鉄道/あおなみ線/金城ふ頭", "railname": "名古屋臨海高速鉄道あおなみ線", "door": "2004/10/01 00:00"}, "type": "Feature", "geometry": {"type": "Point", "coordinates": [136.84897, 35.04866]}}]}