{"type": "FeatureCollection", "features": [{"properties": {"name": "秋葉原", "uri": "https://uedayou.net/jrslod/首都圏新都市鉄道/つくばエクスプレス/秋葉原", "railname": "首都圏新都市鉄道つくばエクスプレス", "door": "2005/08/01 00:00"}, "type": "Feature", "geometry": {"type": "Point", "coordinates": [139.77435, 35.69877]}}, {"properties": {"name": "新御徒町", "uri": "https://uedayou.net/jrslod/首都圏新都市鉄道/つくばエクスプレス/新御徒町", "railname": "首都圏新都市鉄道つくばエクスプレス", "door": "2005/08/01 00:00"}, "type": "Feature", "geometry": {"type": "Point", "coordinates": [139.78118, 35.70699]}}, {"properties": {"name": "浅草", "uri": "https://uedayou.net/jrslod/首都圏新都市鉄道/つくばエクスプレス/浅草", "railname": "首都圏新都市鉄道つくばエクスプレス", "door": "2005/08/01 00:00"}, "type": "Feature", "geometry": {"type": "Point", "coordinates": [139.79261, 35.71478]}}, {"properties": {"name": "南千住", "uri": "https://uedayou.net/jrslod/首都圏新都市鉄道/つくばエクスプレス/南千住", "railname": "首都圏新都市鉄道つくばエクスプレス", "door": "2005/08/01 00:00"}, "type": "Feature", "geometry": {"type": "Point", "coordinates": [139.79844, 35.73233]}}, {"properties": {"name": "北千住", "uri": "https://uedayou.net/jrslod/首都圏新都市鉄道/つくばエクスプレス/北千住", "railname": "首都圏新都市鉄道つくばエクスプレス", "door": "2005/08/01 00:00"}, "type": "Feature", "geometry": {"type": "Point", "coordinates": [139.80554, 35.75104]}}, {"properties": {"name": "青井", "uri": "https://uedayou.net/jrslod/首都圏新都市鉄道/つくばエクスプレス/青井", "railname": "首都圏新都市鉄道つくばエクスプレス", "door": "2005/08/01 00:00"}, "type": "Feature", "geometry": {"type": "Point", "coordinates": [139.82021, 35.77119]}}, {"properties": {"name": "六町", "uri": "https://uedayou.net/jrslod/首都圏新都市鉄道/つくばエクスプレス/六町", "railname": "首都圏新都市鉄道つくばエクスプレス", "door": "2005/08/01 00:00"}, "type": "Feature", "geometry": {"type": "Point", "coordinates": [139.82171, 35.78394]}}, {"properties": {"name": "八潮", "uri": "https://uedayou.net/jrslod/首都圏新都市鉄道/つくばエクスプレス/八潮", "railname": "首都圏新都市鉄道つくばエクスプレス", "door": "2005/08/01 00:00"}, "type": "Feature", "geometry": {"type": "Point", "coordinates": [139.84529, 35.80816]}}, {"properties": {"name": "三郷中央", "uri": "https://uedayou.net/jrslod/首都圏新都市鉄道/つくばエクスプレス/三郷中央", "railname": "首都圏新都市鉄道つくばエクスプレス", "door": "2005/08/01 00:00"}, "type": "Feature", "geometry": {"type": "Point", "coordinates": [139.8787, 35.82501]}}, {"properties": {"name": "南流山", "uri": "https://uedayou.net/jrslod/首都圏新都市鉄道/つくばエクスプレス/南流山", "railname": "首都圏新都市鉄道つくばエクスプレス", "door": "2005/08/01 00:00"}, "type": "Feature", "geometry": {"type": "Point", "coordinates": [139.90347, 35.83885]}}, {"properties": {"name": "流山セントラルパーク", "uri": "https://uedayou.net/jrslod/首都圏新都市鉄道/つくばエクスプレス/流山セントラルパーク", "railname": "首都圏新都市鉄道つくばエクスプレス", "door": "2005/08/01 00:00"}, "type": "Feature", "geometry": {"type": "Point", "coordinates": [139.91529, 35.85519]}}, {"properties": {"name": "流山おおたかの森", "uri": "https://uedayou.net/jrslod/首都圏新都市鉄道/つくばエクスプレス/流山おおたかの森", "railname": "首都圏新都市鉄道つくばエクスプレス", "door": "2005/08/01 00:00"}, "type": "Feature", "geometry": {"type": "Point", "coordinates": [139.92543, 35.8722]}}, {"properties": {"name": "柏の葉キャンパス", "uri": "https://uedayou.net/jrslod/首都圏新都市鉄道/つくばエクスプレス/柏の葉キャンパス", "railname": "首都圏新都市鉄道つくばエクスプレス", "door": "2005/08/01 00:00"}, "type": "Feature", "geometry": {"type": "Point", "coordinates": [139.95238, 35.89276]}}, {"properties": {"name": "柏たなか", "uri": "https://uedayou.net/jrslod/首都圏新都市鉄道/つくばエクスプレス/柏たなか", "railname": "首都圏新都市鉄道つくばエクスプレス", "door": "2005/08/01 00:00"}, "type": "Feature", "geometry": {"type": "Point", "coordinates": [139.95734, 35.91027]}}, {"properties": {"name": "守谷", "uri": "https://uedayou.net/jrslod/首都圏新都市鉄道/つくばエクスプレス/守谷", "railname": "首都圏新都市鉄道つくばエクスプレス", "door": "2005/08/01 00:00"}, "type": "Feature", "geometry": {"type": "Point", "coordinates": [139.99136, 35.94973]}}, {"properties": {"name": "みらい平", "uri": "https://uedayou.net/jrslod/首都圏新都市鉄道/つくばエクスプレス/みらい平", "railname": "首都圏新都市鉄道つくばエクスプレス", "door": "2005/08/01 00:00"}, "type": "Feature", "geometry": {"type": "Point", "coordinates": [140.03801, 35.9938]}}, {"properties": {"name": "みどりの", "uri": "https://uedayou.net/jrslod/首都圏新都市鉄道/つくばエクスプレス/みどりの", "railname": "首都圏新都市鉄道つくばエクスプレス", "door": "2005/08/01 00:00"}, "type": "Feature", "geometry": {"type": "Point", "coordinates": [140.05633, 36.03049]}}, {"properties": {"name": "万博記念公園", "uri": "https://uedayou.net/jrslod/首都圏新都市鉄道/つくばエクスプレス/万博記念公園", "railname": "首都圏新都市鉄道つくばエクスプレス", "door": "2005/08/01 00:00"}, "type": "Feature", "geometry": {"type": "Point", "coordinates": [140.05933, 36.05899]}}, {"properties": {"name": "研究学園", "uri": "https://uedayou.net/jrslod/首都圏新都市鉄道/つくばエクスプレス/研究学園", "railname": "首都圏新都市鉄道つくばエクスプレス", "door": "2005/08/01 00:00"}, "type": "Feature", "geometry": {"type": "Point", "coordinates": [140.08155, 36.0822]}}, {"properties": {"name": "つくば", "uri": "https://uedayou.net/jrslod/首都圏新都市鉄道/つくばエクスプレス/つくば", "railname": "首都圏新都市鉄道つくばエクスプレス", "door": "2005/08/01 00:00"}, "type": "Feature", "geometry": {"type": "Point", "coordinates": [140.11153, 36.08288]}}]}