{"type": "FeatureCollection", "features": [{"properties": {"name": "五井", "uri": "https://uedayou.net/jrslod/小湊鐵道/小湊鉄道線/五井", "railname": "小湊鐵道小湊鉄道線", "door": "NULL"}, "type": "Feature", "geometry": {"type": "Point", "coordinates": [140.08849, 35.51218]}}, {"properties": {"name": "上総村上", "uri": "https://uedayou.net/jrslod/小湊鐵道/小湊鉄道線/上総村上", "railname": "小湊鐵道小湊鉄道線", "door": "NULL"}, "type": "Feature", "geometry": {"type": "Point", "coordinates": [140.10019, 35.49647]}}, {"properties": {"name": "海士有木", "uri": "https://uedayou.net/jrslod/小湊鐵道/小湊鉄道線/海士有木", "railname": "小湊鐵道小湊鉄道線", "door": "NULL"}, "type": "Feature", "geometry": {"type": "Point", "coordinates": [140.12466, 35.48152]}}, {"properties": {"name": "上総三又", "uri": "https://uedayou.net/jrslod/小湊鐵道/小湊鉄道線/上総三又", "railname": "小湊鐵道小湊鉄道線", "door": "NULL"}, "type": "Feature", "geometry": {"type": "Point", "coordinates": [140.12684, 35.46558]}}, {"properties": {"name": "上総山田", "uri": "https://uedayou.net/jrslod/小湊鐵道/小湊鉄道線/上総山田", "railname": "小湊鐵道小湊鉄道線", "door": "NULL"}, "type": "Feature", "geometry": {"type": "Point", "coordinates": [140.12627, 35.45443]}}, {"properties": {"name": "光風台", "uri": "https://uedayou.net/jrslod/小湊鐵道/小湊鉄道線/光風台", "railname": "小湊鐵道小湊鉄道線", "door": "NULL"}, "type": "Feature", "geometry": {"type": "Point", "coordinates": [140.11426, 35.43995]}}, {"properties": {"name": "馬立", "uri": "https://uedayou.net/jrslod/小湊鐵道/小湊鉄道線/馬立", "railname": "小湊鐵道小湊鉄道線", "door": "NULL"}, "type": "Feature", "geometry": {"type": "Point", "coordinates": [140.11456, 35.42404]}}, {"properties": {"name": "上総牛久", "uri": "https://uedayou.net/jrslod/小湊鐵道/小湊鉄道線/上総牛久", "railname": "小湊鐵道小湊鉄道線", "door": "NULL"}, "type": "Feature", "geometry": {"type": "Point", "coordinates": [140.14266, 35.40011]}}, {"properties": {"name": "上総川間", "uri": "https://uedayou.net/jrslod/小湊鐵道/小湊鉄道線/上総川間", "railname": "小湊鐵道小湊鉄道線", "door": "NULL"}, "type": "Feature", "geometry": {"type": "Point", "coordinates": [140.15068, 35.38802]}}, {"properties": {"name": "上総鶴舞", "uri": "https://uedayou.net/jrslod/小湊鐵道/小湊鉄道線/上総鶴舞", "railname": "小湊鐵道小湊鉄道線", "door": "NULL"}, "type": "Feature", "geometry": {"type": "Point", "coordinates": [140.16495, 35.38142]}}, {"properties": {"name": "上総久保", "uri": "https://uedayou.net/jrslod/小湊鐵道/小湊鉄道線/上総久保", "railname": "小湊鐵道小湊鉄道線", "door": "NULL"}, "type": "Feature", "geometry": {"type": "Point", "coordinates": [140.15474, 35.36771]}}, {"properties": {"name": "高滝", "uri": "https://uedayou.net/jrslod/小湊鐵道/小湊鉄道線/高滝", "railname": "小湊鐵道小湊鉄道線", "door": "NULL"}, "type": "Feature", "geometry": {"type": "Point", "coordinates": [140.15051, 35.35335]}}, {"properties": {"name": "里見", "uri": "https://uedayou.net/jrslod/小湊鐵道/小湊鉄道線/里見", "railname": "小湊鐵道小湊鉄道線", "door": "NULL"}, "type": "Feature", "geometry": {"type": "Point", "coordinates": [140.14559, 35.33752]}}, {"properties": {"name": "飯給", "uri": "https://uedayou.net/jrslod/小湊鐵道/小湊鉄道線/飯給", "railname": "小湊鐵道小湊鉄道線", "door": "NULL"}, "type": "Feature", "geometry": {"type": "Point", "coordinates": [140.14257, 35.32018]}}, {"properties": {"name": "月崎", "uri": "https://uedayou.net/jrslod/小湊鐵道/小湊鉄道線/月崎", "railname": "小湊鐵道小湊鉄道線", "door": "NULL"}, "type": "Feature", "geometry": {"type": "Point", "coordinates": [140.13994, 35.30237]}}, {"properties": {"name": "上総大久保", "uri": "https://uedayou.net/jrslod/小湊鐵道/小湊鉄道線/上総大久保", "railname": "小湊鐵道小湊鉄道線", "door": "NULL"}, "type": "Feature", "geometry": {"type": "Point", "coordinates": [140.14635, 35.28334]}}, {"properties": {"name": "養老渓谷", "uri": "https://uedayou.net/jrslod/小湊鐵道/小湊鉄道線/養老渓谷", "railname": "小湊鐵道小湊鉄道線", "door": "NULL"}, "type": "Feature", "geometry": {"type": "Point", "coordinates": [140.15975, 35.2662]}}, {"properties": {"name": "上総中野", "uri": "https://uedayou.net/jrslod/小湊鐵道/小湊鉄道線/上総中野", "railname": "小湊鐵道小湊鉄道線", "door": "NULL"}, "type": "Feature", "geometry": {"type": "Point", "coordinates": [140.19921, 35.25022]}}]}