{"type": "FeatureCollection", "features": [{"properties": {"name": "西若松", "uri": "https://uedayou.net/jrslod/会津鉄道/会津線/西若松", "railname": "会津鉄道会津線", "door": "NULL"}, "type": "Feature", "geometry": {"type": "Point", "coordinates": [139.91417, 37.48637]}}, {"properties": {"name": "南若松", "uri": "https://uedayou.net/jrslod/会津鉄道/会津線/南若松", "railname": "会津鉄道会津線", "door": "NULL"}, "type": "Feature", "geometry": {"type": "Point", "coordinates": [139.91444, 37.45911]}}, {"properties": {"name": "門田", "uri": "https://uedayou.net/jrslod/会津鉄道/会津線/門田", "railname": "会津鉄道会津線", "door": "NULL"}, "type": "Feature", "geometry": {"type": "Point", "coordinates": [139.91378, 37.44234]}}, {"properties": {"name": "あまや", "uri": "https://uedayou.net/jrslod/会津鉄道/会津線/あまや", "railname": "会津鉄道会津線", "door": "NULL"}, "type": "Feature", "geometry": {"type": "Point", "coordinates": [139.91759, 37.41725]}}, {"properties": {"name": "芦ノ牧温泉", "uri": "https://uedayou.net/jrslod/会津鉄道/会津線/芦ノ牧温泉", "railname": "会津鉄道会津線", "door": "NULL"}, "type": "Feature", "geometry": {"type": "Point", "coordinates": [139.9322, 37.39579]}}, {"properties": {"name": "大川ダム公園", "uri": "https://uedayou.net/jrslod/会津鉄道/会津線/大川ダム公園", "railname": "会津鉄道会津線", "door": "NULL"}, "type": "Feature", "geometry": {"type": "Point", "coordinates": [139.92068, 37.34649]}}, {"properties": {"name": "芦ノ牧温泉南", "uri": "https://uedayou.net/jrslod/会津鉄道/会津線/芦ノ牧温泉南", "railname": "会津鉄道会津線", "door": "NULL"}, "type": "Feature", "geometry": {"type": "Point", "coordinates": [139.91854, 37.33488]}}, {"properties": {"name": "湯野上温泉", "uri": "https://uedayou.net/jrslod/会津鉄道/会津線/湯野上温泉", "railname": "会津鉄道会津線", "door": "NULL"}, "type": "Feature", "geometry": {"type": "Point", "coordinates": [139.89534, 37.30371]}}, {"properties": {"name": "塔のへつり", "uri": "https://uedayou.net/jrslod/会津鉄道/会津線/塔のへつり", "railname": "会津鉄道会津線", "door": "NULL"}, "type": "Feature", "geometry": {"type": "Point", "coordinates": [139.90121, 37.27434]}}, {"properties": {"name": "弥五島", "uri": "https://uedayou.net/jrslod/会津鉄道/会津線/弥五島", "railname": "会津鉄道会津線", "door": "NULL"}, "type": "Feature", "geometry": {"type": "Point", "coordinates": [139.8896, 37.26615]}}, {"properties": {"name": "会津下郷", "uri": "https://uedayou.net/jrslod/会津鉄道/会津線/会津下郷", "railname": "会津鉄道会津線", "door": "NULL"}, "type": "Feature", "geometry": {"type": "Point", "coordinates": [139.86469, 37.25491]}}, {"properties": {"name": "ふるさと公園", "uri": "https://uedayou.net/jrslod/会津鉄道/会津線/ふるさと公園", "railname": "会津鉄道会津線", "door": "NULL"}, "type": "Feature", "geometry": {"type": "Point", "coordinates": [139.85918, 37.24354]}}, {"properties": {"name": "養鱒公園", "uri": "https://uedayou.net/jrslod/会津鉄道/会津線/養鱒公園", "railname": "会津鉄道会津線", "door": "NULL"}, "type": "Feature", "geometry": {"type": "Point", "coordinates": [139.84153, 37.22426]}}, {"properties": {"name": "会津長野", "uri": "https://uedayou.net/jrslod/会津鉄道/会津線/会津長野", "railname": "会津鉄道会津線", "door": "NULL"}, "type": "Feature", "geometry": {"type": "Point", "coordinates": [139.82425, 37.21544]}}, {"properties": {"name": "田島高校前", "uri": "https://uedayou.net/jrslod/会津鉄道/会津線/田島高校前", "railname": "会津鉄道会津線", "door": "NULL"}, "type": "Feature", "geometry": {"type": "Point", "coordinates": [139.80112, 37.20978]}}, {"properties": {"name": "会津田島", "uri": "https://uedayou.net/jrslod/会津鉄道/会津線/会津田島", "railname": "会津鉄道会津線", "door": "NULL"}, "type": "Feature", "geometry": {"type": "Point", "coordinates": [139.77474, 37.20325]}}, {"properties": {"name": "中荒井", "uri": "https://uedayou.net/jrslod/会津鉄道/会津線/中荒井", "railname": "会津鉄道会津線", "door": "NULL"}, "type": "Feature", "geometry": {"type": "Point", "coordinates": [139.75068, 37.17995]}}, {"properties": {"name": "会津荒海", "uri": "https://uedayou.net/jrslod/会津鉄道/会津線/会津荒海", "railname": "会津鉄道会津線", "door": "NULL"}, "type": "Feature", "geometry": {"type": "Point", "coordinates": [139.73368, 37.1533]}}, {"properties": {"name": "会津山村道場", "uri": "https://uedayou.net/jrslod/会津鉄道/会津線/会津山村道場", "railname": "会津鉄道会津線", "door": "NULL"}, "type": "Feature", "geometry": {"type": "Point", "coordinates": [139.73201, 37.14464]}}, {"properties": {"name": "七ヶ岳登山口", "uri": "https://uedayou.net/jrslod/会津鉄道/会津線/七ヶ岳登山口", "railname": "会津鉄道会津線", "door": "NULL"}, "type": "Feature", "geometry": {"type": "Point", "coordinates": [139.71738, 37.12418]}}, {"properties": {"name": "会津高原尾瀬口", "uri": "https://uedayou.net/jrslod/会津鉄道/会津線/会津高原尾瀬口", "railname": "会津鉄道会津線", "door": "NULL"}, "type": "Feature", "geometry": {"type": "Point", "coordinates": [139.70512, 37.09002]}}]}