{"type": "FeatureCollection", "features": [{"properties": {"name": "福島", "uri": "https://uedayou.net/jrslod/福島交通/飯坂線/福島", "railname": "福島交通飯坂線", "door": "NULL"}, "type": "Feature", "geometry": {"type": "Point", "coordinates": [140.46001, 37.75523]}}, {"properties": {"name": "曽根田", "uri": "https://uedayou.net/jrslod/福島交通/飯坂線/曽根田", "railname": "福島交通飯坂線", "door": "NULL"}, "type": "Feature", "geometry": {"type": "Point", "coordinates": [140.45949, 37.76033]}}, {"properties": {"name": "美術館図書館前", "uri": "https://uedayou.net/jrslod/福島交通/飯坂線/美術館図書館前", "railname": "福島交通飯坂線", "door": "NULL"}, "type": "Feature", "geometry": {"type": "Point", "coordinates": [140.4552, 37.76742]}}, {"properties": {"name": "岩代清水", "uri": "https://uedayou.net/jrslod/福島交通/飯坂線/岩代清水", "railname": "福島交通飯坂線", "door": "NULL"}, "type": "Feature", "geometry": {"type": "Point", "coordinates": [140.44757, 37.77639]}}, {"properties": {"name": "泉", "uri": "https://uedayou.net/jrslod/福島交通/飯坂線/泉", "railname": "福島交通飯坂線", "door": "NULL"}, "type": "Feature", "geometry": {"type": "Point", "coordinates": [140.44546, 37.7788]}}, {"properties": {"name": "上松川", "uri": "https://uedayou.net/jrslod/福島交通/飯坂線/上松川", "railname": "福島交通飯坂線", "door": "NULL"}, "type": "Feature", "geometry": {"type": "Point", "coordinates": [140.44129, 37.78336]}}, {"properties": {"name": "笹谷", "uri": "https://uedayou.net/jrslod/福島交通/飯坂線/笹谷", "railname": "福島交通飯坂線", "door": "NULL"}, "type": "Feature", "geometry": {"type": "Point", "coordinates": [140.43974, 37.78743]}}, {"properties": {"name": "桜水", "uri": "https://uedayou.net/jrslod/福島交通/飯坂線/桜水", "railname": "福島交通飯坂線", "door": "NULL"}, "type": "Feature", "geometry": {"type": "Point", "coordinates": [140.4411, 37.79583]}}, {"properties": {"name": "平野", "uri": "https://uedayou.net/jrslod/福島交通/飯坂線/平野", "railname": "福島交通飯坂線", "door": "NULL"}, "type": "Feature", "geometry": {"type": "Point", "coordinates": [140.44276, 37.80512]}}, {"properties": {"name": "医王寺前", "uri": "https://uedayou.net/jrslod/福島交通/飯坂線/医王寺前", "railname": "福島交通飯坂線", "door": "NULL"}, "type": "Feature", "geometry": {"type": "Point", "coordinates": [140.4463, 37.8159]}}, {"properties": {"name": "花水坂", "uri": "https://uedayou.net/jrslod/福島交通/飯坂線/花水坂", "railname": "福島交通飯坂線", "door": "NULL"}, "type": "Feature", "geometry": {"type": "Point", "coordinates": [140.45093, 37.82737]}}, {"properties": {"name": "飯坂温泉", "uri": "https://uedayou.net/jrslod/福島交通/飯坂線/飯坂温泉", "railname": "福島交通飯坂線", "door": "NULL"}, "type": "Feature", "geometry": {"type": "Point", "coordinates": [140.45451, 37.82983]}}]}