{"type": "FeatureCollection", "features": [{"properties": {"name": "大阪梅田", "uri": "https://uedayou.net/jrslod/阪急電鉄/阪急神戸本線/大阪梅田", "railname": "阪急電鉄阪急神戸本線", "door": "NULL"}, "type": "Feature", "geometry": {"type": "Point", "coordinates": [135.4979, 34.70641]}}, {"properties": {"name": "中津", "uri": "https://uedayou.net/jrslod/阪急電鉄/阪急神戸本線/中津", "railname": "阪急電鉄阪急神戸本線", "door": "NULL"}, "type": "Feature", "geometry": {"type": "Point", "coordinates": [135.49336, 34.70969]}}, {"properties": {"name": "十三", "uri": "https://uedayou.net/jrslod/阪急電鉄/阪急神戸本線/十三", "railname": "阪急電鉄阪急神戸本線", "door": "NULL"}, "type": "Feature", "geometry": {"type": "Point", "coordinates": [135.48241, 34.7197]}}, {"properties": {"name": "神崎川", "uri": "https://uedayou.net/jrslod/阪急電鉄/阪急神戸本線/神崎川", "railname": "阪急電鉄阪急神戸本線", "door": "NULL"}, "type": "Feature", "geometry": {"type": "Point", "coordinates": [135.47304, 34.73208]}}, {"properties": {"name": "園田", "uri": "https://uedayou.net/jrslod/阪急電鉄/阪急神戸本線/園田", "railname": "阪急電鉄阪急神戸本線", "door": "NULL"}, "type": "Feature", "geometry": {"type": "Point", "coordinates": [135.44742, 34.75229]}}, {"properties": {"name": "塚口", "uri": "https://uedayou.net/jrslod/阪急電鉄/阪急神戸本線/塚口", "railname": "阪急電鉄阪急神戸本線", "door": "NULL"}, "type": "Feature", "geometry": {"type": "Point", "coordinates": [135.41531, 34.75282]}}, {"properties": {"name": "武庫之荘", "uri": "https://uedayou.net/jrslod/阪急電鉄/阪急神戸本線/武庫之荘", "railname": "阪急電鉄阪急神戸本線", "door": "NULL"}, "type": "Feature", "geometry": {"type": "Point", "coordinates": [135.39278, 34.75148]}}, {"properties": {"name": "西宮北口", "uri": "https://uedayou.net/jrslod/阪急電鉄/阪急神戸本線/西宮北口", "railname": "阪急電鉄阪急神戸本線", "door": "NULL"}, "type": "Feature", "geometry": {"type": "Point", "coordinates": [135.35612, 34.74586]}}, {"properties": {"name": "夙川", "uri": "https://uedayou.net/jrslod/阪急電鉄/阪急神戸本線/夙川", "railname": "阪急電鉄阪急神戸本線", "door": "NULL"}, "type": "Feature", "geometry": {"type": "Point", "coordinates": [135.3281, 34.74226]}}, {"properties": {"name": "芦屋川", "uri": "https://uedayou.net/jrslod/阪急電鉄/阪急神戸本線/芦屋川", "railname": "阪急電鉄阪急神戸本線", "door": "NULL"}, "type": "Feature", "geometry": {"type": "Point", "coordinates": [135.30091, 34.73644]}}, {"properties": {"name": "岡本", "uri": "https://uedayou.net/jrslod/阪急電鉄/阪急神戸本線/岡本", "railname": "阪急電鉄阪急神戸本線", "door": "NULL"}, "type": "Feature", "geometry": {"type": "Point", "coordinates": [135.27533, 34.72914]}}, {"properties": {"name": "御影", "uri": "https://uedayou.net/jrslod/阪急電鉄/阪急神戸本線/御影", "railname": "阪急電鉄阪急神戸本線", "door": "NULL"}, "type": "Feature", "geometry": {"type": "Point", "coordinates": [135.25115, 34.72439]}}, {"properties": {"name": "六甲", "uri": "https://uedayou.net/jrslod/阪急電鉄/阪急神戸本線/六甲", "railname": "阪急電鉄阪急神戸本線", "door": "NULL"}, "type": "Feature", "geometry": {"type": "Point", "coordinates": [135.23457, 34.71985]}}, {"properties": {"name": "王子公園", "uri": "https://uedayou.net/jrslod/阪急電鉄/阪急神戸本線/王子公園", "railname": "阪急電鉄阪急神戸本線", "door": "NULL"}, "type": "Feature", "geometry": {"type": "Point", "coordinates": [135.21816, 34.70983]}}, {"properties": {"name": "春日野道", "uri": "https://uedayou.net/jrslod/阪急電鉄/阪急神戸本線/春日野道", "railname": "阪急電鉄阪急神戸本線", "door": "NULL"}, "type": "Feature", "geometry": {"type": "Point", "coordinates": [135.20535, 34.70299]}}, {"properties": {"name": "神戸三宮", "uri": "https://uedayou.net/jrslod/阪急電鉄/阪急神戸本線/神戸三宮", "railname": "阪急電鉄阪急神戸本線", "door": "NULL"}, "type": "Feature", "geometry": {"type": "Point", "coordinates": [135.19342, 34.69359]}}]}