{"type": "FeatureCollection", "features": [{"properties": {"name": "大阪梅田", "uri": "https://uedayou.net/jrslod/阪急電鉄/阪急宝塚本線/大阪梅田", "railname": "阪急電鉄阪急京都本線", "door": "NULL"}, "type": "Feature", "geometry": {"type": "Point", "coordinates": [135.49881, 34.70476]}}, {"properties": {"name": "十三", "uri": "https://uedayou.net/jrslod/阪急電鉄/阪急京都本線/十三", "railname": "阪急電鉄阪急京都本線", "door": "NULL"}, "type": "Feature", "geometry": {"type": "Point", "coordinates": [135.48235, 34.7207]}}, {"properties": {"name": "南方", "uri": "https://uedayou.net/jrslod/阪急電鉄/阪急京都本線/南方", "railname": "阪急電鉄阪急京都本線", "door": "NULL"}, "type": "Feature", "geometry": {"type": "Point", "coordinates": [135.50008, 34.72572]}}, {"properties": {"name": "崇禅寺", "uri": "https://uedayou.net/jrslod/阪急電鉄/阪急京都本線/崇禅寺", "railname": "阪急電鉄阪急京都本線", "door": "NULL"}, "type": "Feature", "geometry": {"type": "Point", "coordinates": [135.50969, 34.73044]}}, {"properties": {"name": "淡路", "uri": "https://uedayou.net/jrslod/阪急電鉄/阪急京都本線/淡路", "railname": "阪急電鉄阪急京都本線", "door": "NULL"}, "type": "Feature", "geometry": {"type": "Point", "coordinates": [135.5164, 34.7387]}}, {"properties": {"name": "上新庄", "uri": "https://uedayou.net/jrslod/阪急電鉄/阪急京都本線/上新庄", "railname": "阪急電鉄阪急京都本線", "door": "NULL"}, "type": "Feature", "geometry": {"type": "Point", "coordinates": [135.5331, 34.75104]}}, {"properties": {"name": "相川", "uri": "https://uedayou.net/jrslod/阪急電鉄/阪急京都本線/相川", "railname": "阪急電鉄阪急京都本線", "door": "NULL"}, "type": "Feature", "geometry": {"type": "Point", "coordinates": [135.53369, 34.7579]}}, {"properties": {"name": "正雀", "uri": "https://uedayou.net/jrslod/阪急電鉄/阪急京都本線/正雀", "railname": "阪急電鉄阪急京都本線", "door": "NULL"}, "type": "Feature", "geometry": {"type": "Point", "coordinates": [135.54572, 34.77558]}}, {"properties": {"name": "摂津市", "uri": "https://uedayou.net/jrslod/阪急電鉄/阪急京都本線/摂津市", "railname": "阪急電鉄阪急京都本線", "door": "NULL"}, "type": "Feature", "geometry": {"type": "Point", "coordinates": [135.55323, 34.78575]}}, {"properties": {"name": "南茨木", "uri": "https://uedayou.net/jrslod/阪急電鉄/阪急京都本線/南茨木", "railname": "阪急電鉄阪急京都本線", "door": "NULL"}, "type": "Feature", "geometry": {"type": "Point", "coordinates": [135.56468, 34.80171]}}, {"properties": {"name": "茨木市", "uri": "https://uedayou.net/jrslod/阪急電鉄/阪急京都本線/茨木市", "railname": "阪急電鉄阪急京都本線", "door": "NULL"}, "type": "Feature", "geometry": {"type": "Point", "coordinates": [135.57509, 34.81578]}}, {"properties": {"name": "総持寺", "uri": "https://uedayou.net/jrslod/阪急電鉄/阪急京都本線/総持寺", "railname": "阪急電鉄阪急京都本線", "door": "NULL"}, "type": "Feature", "geometry": {"type": "Point", "coordinates": [135.58432, 34.82659]}}, {"properties": {"name": "富田", "uri": "https://uedayou.net/jrslod/阪急電鉄/阪急京都本線/富田", "railname": "阪急電鉄阪急京都本線", "door": "NULL"}, "type": "Feature", "geometry": {"type": "Point", "coordinates": [135.59317, 34.83545]}}, {"properties": {"name": "高槻市", "uri": "https://uedayou.net/jrslod/阪急電鉄/阪急京都本線/高槻市", "railname": "阪急電鉄阪急京都本線", "door": "NULL"}, "type": "Feature", "geometry": {"type": "Point", "coordinates": [135.62222, 34.84938]}}, {"properties": {"name": "上牧", "uri": "https://uedayou.net/jrslod/阪急電鉄/阪急京都本線/上牧", "railname": "阪急電鉄阪急京都本線", "door": "NULL"}, "type": "Feature", "geometry": {"type": "Point", "coordinates": [135.66112, 34.87148]}}, {"properties": {"name": "水無瀬", "uri": "https://uedayou.net/jrslod/阪急電鉄/阪急京都本線/水無瀬", "railname": "阪急電鉄阪急京都本線", "door": "NULL"}, "type": "Feature", "geometry": {"type": "Point", "coordinates": [135.66777, 34.87781]}}, {"properties": {"name": "大山崎", "uri": "https://uedayou.net/jrslod/阪急電鉄/阪急京都本線/大山崎", "railname": "阪急電鉄阪急京都本線", "door": "NULL"}, "type": "Feature", "geometry": {"type": "Point", "coordinates": [135.68142, 34.89127]}}, {"properties": {"name": "西山天王山", "uri": "https://uedayou.net/jrslod/阪急電鉄/阪急京都本線/西山天王山", "railname": "阪急電鉄阪急京都本線", "door": "NULL"}, "type": "Feature", "geometry": {"type": "Point", "coordinates": [135.688754, 34.913647]}}, {"properties": {"name": "長岡天神", "uri": "https://uedayou.net/jrslod/阪急電鉄/阪急京都本線/長岡天神", "railname": "阪急電鉄阪急京都本線", "door": "NULL"}, "type": "Feature", "geometry": {"type": "Point", "coordinates": [135.69198, 34.92411]}}, {"properties": {"name": "西向日", "uri": "https://uedayou.net/jrslod/阪急電鉄/阪急京都本線/西向日", "railname": "阪急電鉄阪急京都本線", "door": "NULL"}, "type": "Feature", "geometry": {"type": "Point", "coordinates": [135.70322, 34.94055]}}, {"properties": {"name": "東向日", "uri": "https://uedayou.net/jrslod/阪急電鉄/阪急京都本線/東向日", "railname": "阪急電鉄阪急京都本線", "door": "NULL"}, "type": "Feature", "geometry": {"type": "Point", "coordinates": [135.70485, 34.95303]}}, {"properties": {"name": "洛西口", "uri": "https://uedayou.net/jrslod/阪急電鉄/阪急京都本線/洛西口", "railname": "阪急電鉄阪急京都本線", "door": "NULL"}, "type": "Feature", "geometry": {"type": "Point", "coordinates": [135.70312, 34.96417]}}, {"properties": {"name": "桂", "uri": "https://uedayou.net/jrslod/阪急電鉄/阪急京都本線/桂", "railname": "阪急電鉄阪急京都本線", "door": "NULL"}, "type": "Feature", "geometry": {"type": "Point", "coordinates": [135.70313, 34.97832]}}, {"properties": {"name": "西京極", "uri": "https://uedayou.net/jrslod/阪急電鉄/阪急京都本線/西京極", "railname": "阪急電鉄阪急京都本線", "door": "NULL"}, "type": "Feature", "geometry": {"type": "Point", "coordinates": [135.71871, 34.99264]}}, {"properties": {"name": "西院", "uri": "https://uedayou.net/jrslod/阪急電鉄/阪急京都本線/西院", "railname": "阪急電鉄阪急京都本線", "door": "NULL"}, "type": "Feature", "geometry": {"type": "Point", "coordinates": [135.73233, 35.00356]}}, {"properties": {"name": "大宮", "uri": "https://uedayou.net/jrslod/阪急電鉄/阪急京都本線/大宮", "railname": "阪急電鉄阪急京都本線", "door": "NULL"}, "type": "Feature", "geometry": {"type": "Point", "coordinates": [135.74975, 35.00365]}}, {"properties": {"name": "烏丸", "uri": "https://uedayou.net/jrslod/阪急電鉄/阪急京都本線/烏丸", "railname": "阪急電鉄阪急京都本線", "door": "NULL"}, "type": "Feature", "geometry": {"type": "Point", "coordinates": [135.76079, 35.0037]}}, {"properties": {"name": "京都河原町", "uri": "https://uedayou.net/jrslod/阪急電鉄/阪急京都本線/京都河原町", "railname": "阪急電鉄阪急京都本線", "door": "NULL"}, "type": "Feature", "geometry": {"type": "Point", "coordinates": [135.76881, 35.00378]}}]}