{"type": "FeatureCollection", "features": [{"properties": {"name": "八代", "uri": "https://uedayou.net/jrslod/肥薩おれんじ鉄道/肥薩おれんじ鉄道線/八代", "railname": "肥薩おれんじ鉄道肥薩おれんじ鉄道線", "door": "NULL"}, "type": "Feature", "geometry": {"type": "Point", "coordinates": [130.61986, 32.50506]}}, {"properties": {"name": "肥後高田", "uri": "https://uedayou.net/jrslod/肥薩おれんじ鉄道/肥薩おれんじ鉄道線/肥後高田", "railname": "肥薩おれんじ鉄道肥薩おれんじ鉄道線", "door": "NULL"}, "type": "Feature", "geometry": {"type": "Point", "coordinates": [130.61273, 32.47538]}}, {"properties": {"name": "日奈久温泉", "uri": "https://uedayou.net/jrslod/肥薩おれんじ鉄道/肥薩おれんじ鉄道線/日奈久温泉", "railname": "肥薩おれんじ鉄道肥薩おれんじ鉄道線", "door": "NULL"}, "type": "Feature", "geometry": {"type": "Point", "coordinates": [130.58161, 32.43577]}}, {"properties": {"name": "肥後二見", "uri": "https://uedayou.net/jrslod/肥薩おれんじ鉄道/肥薩おれんじ鉄道線/肥後二見", "railname": "肥薩おれんじ鉄道肥薩おれんじ鉄道線", "door": "NULL"}, "type": "Feature", "geometry": {"type": "Point", "coordinates": [130.54966, 32.42004]}}, {"properties": {"name": "上田浦", "uri": "https://uedayou.net/jrslod/肥薩おれんじ鉄道/肥薩おれんじ鉄道線/上田浦", "railname": "肥薩おれんじ鉄道肥薩おれんじ鉄道線", "door": "NULL"}, "type": "Feature", "geometry": {"type": "Point", "coordinates": [130.51896, 32.39313]}}, {"properties": {"name": "たのうら御立岬公園", "uri": "https://uedayou.net/jrslod/肥薩おれんじ鉄道/肥薩おれんじ鉄道線/たのうら御立岬公園", "railname": "肥薩おれんじ鉄道肥薩おれんじ鉄道線", "door": "NULL"}, "type": "Feature", "geometry": {"type": "Point", "coordinates": [130.50651, 32.36374]}}, {"properties": {"name": "肥後田浦", "uri": "https://uedayou.net/jrslod/肥薩おれんじ鉄道/肥薩おれんじ鉄道線/肥後田浦", "railname": "肥薩おれんじ鉄道肥薩おれんじ鉄道線", "door": "NULL"}, "type": "Feature", "geometry": {"type": "Point", "coordinates": [130.50452, 32.35042]}}, {"properties": {"name": "海浦", "uri": "https://uedayou.net/jrslod/肥薩おれんじ鉄道/肥薩おれんじ鉄道線/海浦", "railname": "肥薩おれんじ鉄道肥薩おれんじ鉄道線", "door": "NULL"}, "type": "Feature", "geometry": {"type": "Point", "coordinates": [130.4888, 32.32764]}}, {"properties": {"name": "佐敷", "uri": "https://uedayou.net/jrslod/肥薩おれんじ鉄道/肥薩おれんじ鉄道線/佐敷", "railname": "肥薩おれんじ鉄道肥薩おれんじ鉄道線", "door": "NULL"}, "type": "Feature", "geometry": {"type": "Point", "coordinates": [130.49763, 32.30284]}}, {"properties": {"name": "湯浦", "uri": "https://uedayou.net/jrslod/肥薩おれんじ鉄道/肥薩おれんじ鉄道線/湯浦", "railname": "肥薩おれんじ鉄道肥薩おれんじ鉄道線", "door": "NULL"}, "type": "Feature", "geometry": {"type": "Point", "coordinates": [130.50505, 32.27077]}}, {"properties": {"name": "津奈木", "uri": "https://uedayou.net/jrslod/肥薩おれんじ鉄道/肥薩おれんじ鉄道線/津奈木", "railname": "肥薩おれんじ鉄道肥薩おれんじ鉄道線", "door": "NULL"}, "type": "Feature", "geometry": {"type": "Point", "coordinates": [130.45077, 32.2323]}}, {"properties": {"name": "新水俣", "uri": "https://uedayou.net/jrslod/肥薩おれんじ鉄道/肥薩おれんじ鉄道線/新水俣", "railname": "肥薩おれんじ鉄道肥薩おれんじ鉄道線", "door": "NULL"}, "type": "Feature", "geometry": {"type": "Point", "coordinates": [130.42929, 32.21084]}}, {"properties": {"name": "水俣", "uri": "https://uedayou.net/jrslod/肥薩おれんじ鉄道/肥薩おれんじ鉄道線/水俣", "railname": "肥薩おれんじ鉄道肥薩おれんじ鉄道線", "door": "NULL"}, "type": "Feature", "geometry": {"type": "Point", "coordinates": [130.39712, 32.20559]}}, {"properties": {"name": "袋", "uri": "https://uedayou.net/jrslod/肥薩おれんじ鉄道/肥薩おれんじ鉄道線/袋", "railname": "肥薩おれんじ鉄道肥薩おれんじ鉄道線", "door": "NULL"}, "type": "Feature", "geometry": {"type": "Point", "coordinates": [130.37484, 32.16611]}}, {"properties": {"name": "米ノ津", "uri": "https://uedayou.net/jrslod/肥薩おれんじ鉄道/肥薩おれんじ鉄道線/米ノ津", "railname": "肥薩おれんじ鉄道肥薩おれんじ鉄道線", "door": "NULL"}, "type": "Feature", "geometry": {"type": "Point", "coordinates": [130.34239, 32.12281]}}, {"properties": {"name": "出水", "uri": "https://uedayou.net/jrslod/肥薩おれんじ鉄道/肥薩おれんじ鉄道線/出水", "railname": "肥薩おれんじ鉄道肥薩おれんじ鉄道線", "door": "NULL"}, "type": "Feature", "geometry": {"type": "Point", "coordinates": [130.35751, 32.09057]}}, {"properties": {"name": "西出水", "uri": "https://uedayou.net/jrslod/肥薩おれんじ鉄道/肥薩おれんじ鉄道線/西出水", "railname": "肥薩おれんじ鉄道肥薩おれんじ鉄道線", "door": "NULL"}, "type": "Feature", "geometry": {"type": "Point", "coordinates": [130.33852, 32.07509]}}, {"properties": {"name": "高尾野", "uri": "https://uedayou.net/jrslod/肥薩おれんじ鉄道/肥薩おれんじ鉄道線/高尾野", "railname": "肥薩おれんじ鉄道肥薩おれんじ鉄道線", "door": "NULL"}, "type": "Feature", "geometry": {"type": "Point", "coordinates": [130.30079, 32.06248]}}, {"properties": {"name": "野田郷", "uri": "https://uedayou.net/jrslod/肥薩おれんじ鉄道/肥薩おれんじ鉄道線/野田郷", "railname": "肥薩おれんじ鉄道肥薩おれんじ鉄道線", "door": "NULL"}, "type": "Feature", "geometry": {"type": "Point", "coordinates": [130.26838, 32.06317]}}, {"properties": {"name": "折口", "uri": "https://uedayou.net/jrslod/肥薩おれんじ鉄道/肥薩おれんじ鉄道線/折口", "railname": "肥薩おれんじ鉄道肥薩おれんじ鉄道線", "door": "NULL"}, "type": "Feature", "geometry": {"type": "Point", "coordinates": [130.21824, 32.06101]}}, {"properties": {"name": "阿久根", "uri": "https://uedayou.net/jrslod/肥薩おれんじ鉄道/肥薩おれんじ鉄道線/阿久根", "railname": "肥薩おれんじ鉄道肥薩おれんじ鉄道線", "door": "NULL"}, "type": "Feature", "geometry": {"type": "Point", "coordinates": [130.19612, 32.02435]}}, {"properties": {"name": "牛ノ浜", "uri": "https://uedayou.net/jrslod/肥薩おれんじ鉄道/肥薩おれんじ鉄道線/牛ノ浜", "railname": "肥薩おれんじ鉄道肥薩おれんじ鉄道線", "door": "NULL"}, "type": "Feature", "geometry": {"type": "Point", "coordinates": [130.20687, 31.97419]}}, {"properties": {"name": "薩摩大川", "uri": "https://uedayou.net/jrslod/肥薩おれんじ鉄道/肥薩おれんじ鉄道線/薩摩大川", "railname": "肥薩おれんじ鉄道肥薩おれんじ鉄道線", "door": "NULL"}, "type": "Feature", "geometry": {"type": "Point", "coordinates": [130.21845, 31.94879]}}, {"properties": {"name": "西方", "uri": "https://uedayou.net/jrslod/肥薩おれんじ鉄道/肥薩おれんじ鉄道線/西方", "railname": "肥薩おれんじ鉄道肥薩おれんじ鉄道線", "door": "NULL"}, "type": "Feature", "geometry": {"type": "Point", "coordinates": [130.22394, 31.91572]}}, {"properties": {"name": "薩摩高城", "uri": "https://uedayou.net/jrslod/肥薩おれんじ鉄道/肥薩おれんじ鉄道線/薩摩高城", "railname": "肥薩おれんじ鉄道肥薩おれんじ鉄道線", "door": "NULL"}, "type": "Feature", "geometry": {"type": "Point", "coordinates": [130.22053, 31.89223]}}, {"properties": {"name": "草道", "uri": "https://uedayou.net/jrslod/肥薩おれんじ鉄道/肥薩おれんじ鉄道線/草道", "railname": "肥薩おれんじ鉄道肥薩おれんじ鉄道線", "door": "NULL"}, "type": "Feature", "geometry": {"type": "Point", "coordinates": [130.23375, 31.8543]}}, {"properties": {"name": "上川内", "uri": "https://uedayou.net/jrslod/肥薩おれんじ鉄道/肥薩おれんじ鉄道線/上川内", "railname": "肥薩おれんじ鉄道肥薩おれんじ鉄道線", "door": "NULL"}, "type": "Feature", "geometry": {"type": "Point", "coordinates": [130.29103, 31.83641]}}, {"properties": {"name": "川内", "uri": "https://uedayou.net/jrslod/肥薩おれんじ鉄道/肥薩おれんじ鉄道線/川内", "railname": "肥薩おれんじ鉄道肥薩おれんじ鉄道線", "door": "NULL"}, "type": "Feature", "geometry": {"type": "Point", "coordinates": [130.31247, 31.81275]}}]}