{"type": "FeatureCollection", "features": [{"properties": {"name": "八木山動物公園", "uri": "https://uedayou.net/jrslod/仙台市交通局/東西線/八木山動物公園", "railname": "仙台市交通局東西線", "door": "2015/12/01 00:00"}, "type": "Feature", "geometry": {"type": "Point", "coordinates": [140.844399, 38.243538]}}, {"properties": {"name": "青葉山", "uri": "https://uedayou.net/jrslod/仙台市交通局/東西線/青葉山", "railname": "仙台市交通局東西線", "door": "2015/12/01 00:00"}, "type": "Feature", "geometry": {"type": "Point", "coordinates": [140.835483, 38.255502]}}, {"properties": {"name": "川内", "uri": "https://uedayou.net/jrslod/仙台市交通局/東西線/川内", "railname": "仙台市交通局東西線", "door": "2015/12/01 00:00"}, "type": "Feature", "geometry": {"type": "Point", "coordinates": [140.850785, 38.260998]}}, {"properties": {"name": "国際センター", "uri": "https://uedayou.net/jrslod/仙台市交通局/東西線/国際センター", "railname": "仙台市交通局東西線", "door": "2015/12/01 00:00"}, "type": "Feature", "geometry": {"type": "Point", "coordinates": [140.857466, 38.260139]}}, {"properties": {"name": "大町西公園", "uri": "https://uedayou.net/jrslod/仙台市交通局/東西線/大町西公園", "railname": "仙台市交通局東西線", "door": "2015/12/01 00:00"}, "type": "Feature", "geometry": {"type": "Point", "coordinates": [140.865041, 38.258882]}}, {"properties": {"name": "青葉通一番町", "uri": "https://uedayou.net/jrslod/仙台市交通局/東西線/青葉通一番町", "railname": "仙台市交通局東西線", "door": "2015/12/01 00:00"}, "type": "Feature", "geometry": {"type": "Point", "coordinates": [140.871608, 38.259593]}}, {"properties": {"name": "仙台", "uri": "https://uedayou.net/jrslod/仙台市交通局/東西線/仙台", "railname": "仙台市交通局東西線", "door": "2015/12/01 00:00"}, "type": "Feature", "geometry": {"type": "Point", "coordinates": [140.880709, 38.259893]}}, {"properties": {"name": "宮城野通", "uri": "https://uedayou.net/jrslod/仙台市交通局/東西線/宮城野通", "railname": "仙台市交通局東西線", "door": "2015/12/01 00:00"}, "type": "Feature", "geometry": {"type": "Point", "coordinates": [140.885749, 38.257691]}}, {"properties": {"name": "連坊", "uri": "https://uedayou.net/jrslod/仙台市交通局/東西線/連坊", "railname": "仙台市交通局東西線", "door": "2015/12/01 00:00"}, "type": "Feature", "geometry": {"type": "Point", "coordinates": [140.893692, 38.251081]}}, {"properties": {"name": "薬師堂", "uri": "https://uedayou.net/jrslod/仙台市交通局/東西線/薬師堂", "railname": "仙台市交通局東西線", "door": "2015/12/01 00:00"}, "type": "Feature", "geometry": {"type": "Point", "coordinates": [140.906504, 38.24951]}}, {"properties": {"name": "卸町", "uri": "https://uedayou.net/jrslod/仙台市交通局/東西線/卸町", "railname": "仙台市交通局東西線", "door": "2015/12/01 00:00"}, "type": "Feature", "geometry": {"type": "Point", "coordinates": [140.921372, 38.251523]}}, {"properties": {"name": "六丁の目", "uri": "https://uedayou.net/jrslod/仙台市交通局/東西線/六丁の目", "railname": "仙台市交通局東西線", "door": "2015/12/01 00:00"}, "type": "Feature", "geometry": {"type": "Point", "coordinates": [140.935218, 38.250943]}}, {"properties": {"name": "荒井", "uri": "https://uedayou.net/jrslod/仙台市交通局/東西線/荒井", "railname": "仙台市交通局東西線", "door": "2015/12/01 00:00"}, "type": "Feature", "geometry": {"type": "Point", "coordinates": [140.947485, 38.244966]}}]}