{"type": "FeatureCollection", "features": [{"properties": {"name": "国分寺", "uri": "https://uedayou.net/jrslod/西武鉄道/西武国分寺線/国分寺", "railname": "西武鉄道西武国分寺線", "door": "NULL"}, "type": "Feature", "geometry": {"type": "Point", "coordinates": [139.48141, 35.70015]}}, {"properties": {"name": "恋ヶ窪", "uri": "https://uedayou.net/jrslod/西武鉄道/西武国分寺線/恋ヶ窪", "railname": "西武鉄道西武国分寺線", "door": "NULL"}, "type": "Feature", "geometry": {"type": "Point", "coordinates": [139.46358, 35.71174]}}, {"properties": {"name": "鷹の台", "uri": "https://uedayou.net/jrslod/西武鉄道/西武国分寺線/鷹の台", "railname": "西武鉄道西武国分寺線", "door": "NULL"}, "type": "Feature", "geometry": {"type": "Point", "coordinates": [139.46113, 35.72344]}}, {"properties": {"name": "小川", "uri": "https://uedayou.net/jrslod/西武鉄道/西武国分寺線/小川", "railname": "西武鉄道西武国分寺線", "door": "NULL"}, "type": "Feature", "geometry": {"type": "Point", "coordinates": [139.46359, 35.73814]}}, {"properties": {"name": "東村山", "uri": "https://uedayou.net/jrslod/西武鉄道/西武国分寺線/東村山", "railname": "西武鉄道西武国分寺線", "door": "NULL"}, "type": "Feature", "geometry": {"type": "Point", "coordinates": [139.46591, 35.7609]}}]}