{"type": "FeatureCollection", "features": [{"properties": {"name": "恵美須町", "uri": "https://uedayou.net/jrslod/阪堺電気軌道/阪堺線/恵美須町", "railname": "阪堺電気軌道阪堺線", "door": "NULL"}, "type": "Feature", "geometry": {"type": "Point", "coordinates": [135.50503, 34.65388]}}, {"properties": {"name": "新今宮駅前", "uri": "https://uedayou.net/jrslod/阪堺電気軌道/阪堺線/新今宮駅前", "railname": "阪堺電気軌道阪堺線", "door": "NULL"}, "type": "Feature", "geometry": {"type": "Point", "coordinates": [135.50346, 34.64977]}}, {"properties": {"name": "今池", "uri": "https://uedayou.net/jrslod/阪堺電気軌道/阪堺線/今池", "railname": "阪堺電気軌道阪堺線", "door": "NULL"}, "type": "Feature", "geometry": {"type": "Point", "coordinates": [135.50234, 34.64592]}}, {"properties": {"name": "今船", "uri": "https://uedayou.net/jrslod/阪堺電気軌道/阪堺線/今船", "railname": "阪堺電気軌道阪堺線", "door": "NULL"}, "type": "Feature", "geometry": {"type": "Point", "coordinates": [135.50175, 34.64319]}}, {"properties": {"name": "松田町", "uri": "https://uedayou.net/jrslod/阪堺電気軌道/阪堺線/松田町", "railname": "阪堺電気軌道阪堺線", "door": "NULL"}, "type": "Feature", "geometry": {"type": "Point", "coordinates": [135.50097, 34.63966]}}, {"properties": {"name": "北天下茶屋", "uri": "https://uedayou.net/jrslod/阪堺電気軌道/阪堺線/北天下茶屋", "railname": "阪堺電気軌道阪堺線", "door": "NULL"}, "type": "Feature", "geometry": {"type": "Point", "coordinates": [135.50016, 34.63611]}}, {"properties": {"name": "聖天坂", "uri": "https://uedayou.net/jrslod/阪堺電気軌道/阪堺線/聖天坂", "railname": "阪堺電気軌道阪堺線", "door": "NULL"}, "type": "Feature", "geometry": {"type": "Point", "coordinates": [135.49941, 34.6328]}}, {"properties": {"name": "天神ノ森", "uri": "https://uedayou.net/jrslod/阪堺電気軌道/阪堺線/天神ノ森", "railname": "阪堺電気軌道阪堺線", "door": "NULL"}, "type": "Feature", "geometry": {"type": "Point", "coordinates": [135.49791, 34.62943]}}, {"properties": {"name": "東玉出", "uri": "https://uedayou.net/jrslod/阪堺電気軌道/阪堺線/東玉出", "railname": "阪堺電気軌道阪堺線", "door": "NULL"}, "type": "Feature", "geometry": {"type": "Point", "coordinates": [135.49605, 34.62706]}}, {"properties": {"name": "塚西", "uri": "https://uedayou.net/jrslod/阪堺電気軌道/阪堺線/塚西", "railname": "阪堺電気軌道阪堺線", "door": "NULL"}, "type": "Feature", "geometry": {"type": "Point", "coordinates": [135.49452, 34.62333]}}, {"properties": {"name": "東粉浜", "uri": "https://uedayou.net/jrslod/阪堺電気軌道/阪堺線/東粉浜", "railname": "阪堺電気軌道阪堺線", "door": "NULL"}, "type": "Feature", "geometry": {"type": "Point", "coordinates": [135.49265, 34.61842]}}, {"properties": {"name": "住吉", "uri": "https://uedayou.net/jrslod/阪堺電気軌道/阪堺線/住吉", "railname": "阪堺電気軌道阪堺線", "door": "NULL"}, "type": "Feature", "geometry": {"type": "Point", "coordinates": [135.491689, 34.613789]}}, {"properties": {"name": "住吉鳥居前", "uri": "https://uedayou.net/jrslod/阪堺電気軌道/阪堺線/住吉鳥居前", "railname": "阪堺電気軌道阪堺線", "door": "NULL"}, "type": "Feature", "geometry": {"type": "Point", "coordinates": [135.491203, 34.612539]}}, {"properties": {"name": "細井川", "uri": "https://uedayou.net/jrslod/阪堺電気軌道/阪堺線/細井川", "railname": "阪堺電気軌道阪堺線", "door": "NULL"}, "type": "Feature", "geometry": {"type": "Point", "coordinates": [135.49109, 34.6094]}}, {"properties": {"name": "安立町", "uri": "https://uedayou.net/jrslod/阪堺電気軌道/阪堺線/安立町", "railname": "阪堺電気軌道阪堺線", "door": "NULL"}, "type": "Feature", "geometry": {"type": "Point", "coordinates": [135.49017, 34.60578]}}, {"properties": {"name": "我孫子道", "uri": "https://uedayou.net/jrslod/阪堺電気軌道/阪堺線/我孫子道", "railname": "阪堺電気軌道阪堺線", "door": "NULL"}, "type": "Feature", "geometry": {"type": "Point", "coordinates": [135.48865, 34.59997]}}, {"properties": {"name": "大和川", "uri": "https://uedayou.net/jrslod/阪堺電気軌道/阪堺線/大和川", "railname": "阪堺電気軌道阪堺線", "door": "NULL"}, "type": "Feature", "geometry": {"type": "Point", "coordinates": [135.48687, 34.59499]}}, {"properties": {"name": "高須神社", "uri": "https://uedayou.net/jrslod/阪堺電気軌道/阪堺線/高須神社", "railname": "阪堺電気軌道阪堺線", "door": "NULL"}, "type": "Feature", "geometry": {"type": "Point", "coordinates": [135.48535, 34.59078]}}, {"properties": {"name": "綾ノ町", "uri": "https://uedayou.net/jrslod/阪堺電気軌道/阪堺線/綾ノ町", "railname": "阪堺電気軌道阪堺線", "door": "NULL"}, "type": "Feature", "geometry": {"type": "Point", "coordinates": [135.48285, 34.58784]}}, {"properties": {"name": "神明町", "uri": "https://uedayou.net/jrslod/阪堺電気軌道/阪堺線/神明町", "railname": "阪堺電気軌道阪堺線", "door": "NULL"}, "type": "Feature", "geometry": {"type": "Point", "coordinates": [135.48031, 34.58537]}}, {"properties": {"name": "妙国寺前", "uri": "https://uedayou.net/jrslod/阪堺電気軌道/阪堺線/妙国寺前", "railname": "阪堺電気軌道阪堺線", "door": "NULL"}, "type": "Feature", "geometry": {"type": "Point", "coordinates": [135.47888, 34.58386]}}, {"properties": {"name": "花田口", "uri": "https://uedayou.net/jrslod/阪堺電気軌道/阪堺線/花田口", "railname": "阪堺電気軌道阪堺線", "door": "NULL"}, "type": "Feature", "geometry": {"type": "Point", "coordinates": [135.47709, 34.58192]}}, {"properties": {"name": "大小路", "uri": "https://uedayou.net/jrslod/阪堺電気軌道/阪堺線/大小路", "railname": "阪堺電気軌道阪堺線", "door": "NULL"}, "type": "Feature", "geometry": {"type": "Point", "coordinates": [135.47468, 34.57931]}}, {"properties": {"name": "宿院", "uri": "https://uedayou.net/jrslod/阪堺電気軌道/阪堺線/宿院", "railname": "阪堺電気軌道阪堺線", "door": "NULL"}, "type": "Feature", "geometry": {"type": "Point", "coordinates": [135.47218, 34.57661]}}, {"properties": {"name": "寺地町", "uri": "https://uedayou.net/jrslod/阪堺電気軌道/阪堺線/寺地町", "railname": "阪堺電気軌道阪堺線", "door": "NULL"}, "type": "Feature", "geometry": {"type": "Point", "coordinates": [135.46957, 34.57382]}}, {"properties": {"name": "御陵前", "uri": "https://uedayou.net/jrslod/阪堺電気軌道/阪堺線/御陵前", "railname": "阪堺電気軌道阪堺線", "door": "NULL"}, "type": "Feature", "geometry": {"type": "Point", "coordinates": [135.46689, 34.57094]}}, {"properties": {"name": "東湊", "uri": "https://uedayou.net/jrslod/阪堺電気軌道/阪堺線/東湊", "railname": "阪堺電気軌道阪堺線", "door": "NULL"}, "type": "Feature", "geometry": {"type": "Point", "coordinates": [135.46254, 34.56463]}}, {"properties": {"name": "石津北", "uri": "https://uedayou.net/jrslod/阪堺電気軌道/阪堺線/石津北", "railname": "阪堺電気軌道阪堺線", "door": "NULL"}, "type": "Feature", "geometry": {"type": "Point", "coordinates": [135.45894, 34.56021]}}, {"properties": {"name": "石津", "uri": "https://uedayou.net/jrslod/阪堺電気軌道/阪堺線/石津", "railname": "阪堺電気軌道阪堺線", "door": "NULL"}, "type": "Feature", "geometry": {"type": "Point", "coordinates": [135.45519, 34.55558]}}, {"properties": {"name": "船尾", "uri": "https://uedayou.net/jrslod/阪堺電気軌道/阪堺線/船尾", "railname": "阪堺電気軌道阪堺線", "door": "NULL"}, "type": "Feature", "geometry": {"type": "Point", "coordinates": [135.4508, 34.5501]}}, {"properties": {"name": "浜寺駅前", "uri": "https://uedayou.net/jrslod/阪堺電気軌道/阪堺線/浜寺駅前", "railname": "阪堺電気軌道阪堺線", "door": "NULL"}, "type": "Feature", "geometry": {"type": "Point", "coordinates": [135.44367, 34.54179]}}]}