{"type": "FeatureCollection", "features": [{"properties": {"name": "六日町", "uri": "https://uedayou.net/jrslod/北越急行/ほくほく線/六日町", "railname": "北越急行ほくほく線", "door": "NULL"}, "type": "Feature", "geometry": {"type": "Point", "coordinates": [138.87587, 37.06735]}}, {"properties": {"name": "魚沼丘陵", "uri": "https://uedayou.net/jrslod/北越急行/ほくほく線/魚沼丘陵", "railname": "北越急行ほくほく線", "door": "NULL"}, "type": "Feature", "geometry": {"type": "Point", "coordinates": [138.87792, 37.09592]}}, {"properties": {"name": "美佐島", "uri": "https://uedayou.net/jrslod/北越急行/ほくほく線/美佐島", "railname": "北越急行ほくほく線", "door": "NULL"}, "type": "Feature", "geometry": {"type": "Point", "coordinates": [138.7903, 37.13079]}}, {"properties": {"name": "しんざ", "uri": "https://uedayou.net/jrslod/北越急行/ほくほく線/しんざ", "railname": "北越急行ほくほく線", "door": "NULL"}, "type": "Feature", "geometry": {"type": "Point", "coordinates": [138.76803, 37.13984]}}, {"properties": {"name": "十日町", "uri": "https://uedayou.net/jrslod/北越急行/ほくほく線/十日町", "railname": "北越急行ほくほく線", "door": "NULL"}, "type": "Feature", "geometry": {"type": "Point", "coordinates": [138.75545, 37.13372]}}, {"properties": {"name": "まつだい", "uri": "https://uedayou.net/jrslod/北越急行/ほくほく線/まつだい", "railname": "北越急行ほくほく線", "door": "NULL"}, "type": "Feature", "geometry": {"type": "Point", "coordinates": [138.61439, 37.13223]}}, {"properties": {"name": "ほくほく大島", "uri": "https://uedayou.net/jrslod/北越急行/ほくほく線/ほくほく大島", "railname": "北越急行ほくほく線", "door": "NULL"}, "type": "Feature", "geometry": {"type": "Point", "coordinates": [138.50996, 37.14693]}}, {"properties": {"name": "虫川大杉", "uri": "https://uedayou.net/jrslod/北越急行/ほくほく線/虫川大杉", "railname": "北越急行ほくほく線", "door": "NULL"}, "type": "Feature", "geometry": {"type": "Point", "coordinates": [138.44104, 37.15494]}}, {"properties": {"name": "うらがわら", "uri": "https://uedayou.net/jrslod/北越急行/ほくほく線/うらがわら", "railname": "北越急行ほくほく線", "door": "NULL"}, "type": "Feature", "geometry": {"type": "Point", "coordinates": [138.41863, 37.15946]}}, {"properties": {"name": "大池いこいの森", "uri": "https://uedayou.net/jrslod/北越急行/ほくほく線/大池いこいの森", "railname": "北越急行ほくほく線", "door": "NULL"}, "type": "Feature", "geometry": {"type": "Point", "coordinates": [138.37379, 37.18418]}}, {"properties": {"name": "くびき", "uri": "https://uedayou.net/jrslod/北越急行/ほくほく線/くびき", "railname": "北越急行ほくほく線", "door": "NULL"}, "type": "Feature", "geometry": {"type": "Point", "coordinates": [138.36195, 37.19791]}}, {"properties": {"name": "犀潟", "uri": "https://uedayou.net/jrslod/北越急行/ほくほく線/犀潟", "railname": "北越急行ほくほく線", "door": "NULL"}, "type": "Feature", "geometry": {"type": "Point", "coordinates": [138.30433, 37.2097]}}]}