{"type": "FeatureCollection", "features": [{"properties": {"name": "南宮崎", "uri": "https://uedayou.net/jrslod/九州旅客鉄道/日南線/南宮崎", "railname": "九州旅客鉄道日南線", "door": "NULL"}, "type": "Feature", "geometry": {"type": "Point", "coordinates": [131.42359, 31.89607]}}, {"properties": {"name": "田吉", "uri": "https://uedayou.net/jrslod/九州旅客鉄道/日南線/田吉", "railname": "九州旅客鉄道日南線", "door": "NULL"}, "type": "Feature", "geometry": {"type": "Point", "coordinates": [131.43057, 31.87841]}}, {"properties": {"name": "南方", "uri": "https://uedayou.net/jrslod/九州旅客鉄道/日南線/南方", "railname": "九州旅客鉄道日南線", "door": "NULL"}, "type": "Feature", "geometry": {"type": "Point", "coordinates": [131.43462, 31.8591]}}, {"properties": {"name": "木花", "uri": "https://uedayou.net/jrslod/九州旅客鉄道/日南線/木花", "railname": "九州旅客鉄道日南線", "door": "NULL"}, "type": "Feature", "geometry": {"type": "Point", "coordinates": [131.43726, 31.83084]}}, {"properties": {"name": "運動公園", "uri": "https://uedayou.net/jrslod/九州旅客鉄道/日南線/運動公園", "railname": "九州旅客鉄道日南線", "door": "NULL"}, "type": "Feature", "geometry": {"type": "Point", "coordinates": [131.44252, 31.82011]}}, {"properties": {"name": "曽山寺", "uri": "https://uedayou.net/jrslod/九州旅客鉄道/日南線/曽山寺", "railname": "九州旅客鉄道日南線", "door": "NULL"}, "type": "Feature", "geometry": {"type": "Point", "coordinates": [131.44879, 31.81344]}}, {"properties": {"name": "子供の国", "uri": "https://uedayou.net/jrslod/九州旅客鉄道/日南線/子供の国", "railname": "九州旅客鉄道日南線", "door": "NULL"}, "type": "Feature", "geometry": {"type": "Point", "coordinates": [131.45717, 31.80708]}}, {"properties": {"name": "青島", "uri": "https://uedayou.net/jrslod/九州旅客鉄道/日南線/青島", "railname": "九州旅客鉄道日南線", "door": "NULL"}, "type": "Feature", "geometry": {"type": "Point", "coordinates": [131.4672, 31.79908]}}, {"properties": {"name": "折生迫", "uri": "https://uedayou.net/jrslod/九州旅客鉄道/日南線/折生迫", "railname": "九州旅客鉄道日南線", "door": "NULL"}, "type": "Feature", "geometry": {"type": "Point", "coordinates": [131.46741, 31.78902]}}, {"properties": {"name": "内海", "uri": "https://uedayou.net/jrslod/九州旅客鉄道/日南線/内海", "railname": "九州旅客鉄道日南線", "door": "NULL"}, "type": "Feature", "geometry": {"type": "Point", "coordinates": [131.46762, 31.75823]}}, {"properties": {"name": "小内海", "uri": "https://uedayou.net/jrslod/九州旅客鉄道/日南線/小内海", "railname": "九州旅客鉄道日南線", "door": "NULL"}, "type": "Feature", "geometry": {"type": "Point", "coordinates": [131.46574, 31.73788]}}, {"properties": {"name": "伊比井", "uri": "https://uedayou.net/jrslod/九州旅客鉄道/日南線/伊比井", "railname": "九州旅客鉄道日南線", "door": "NULL"}, "type": "Feature", "geometry": {"type": "Point", "coordinates": [131.45657, 31.71119]}}, {"properties": {"name": "北郷", "uri": "https://uedayou.net/jrslod/九州旅客鉄道/日南線/北郷", "railname": "九州旅客鉄道日南線", "door": "NULL"}, "type": "Feature", "geometry": {"type": "Point", "coordinates": [131.37361, 31.67793]}}, {"properties": {"name": "内之田", "uri": "https://uedayou.net/jrslod/九州旅客鉄道/日南線/内之田", "railname": "九州旅客鉄道日南線", "door": "NULL"}, "type": "Feature", "geometry": {"type": "Point", "coordinates": [131.37265, 31.64257]}}, {"properties": {"name": "飫肥", "uri": "https://uedayou.net/jrslod/九州旅客鉄道/日南線/飫肥", "railname": "九州旅客鉄道日南線", "door": "NULL"}, "type": "Feature", "geometry": {"type": "Point", "coordinates": [131.36132, 31.62698]}}, {"properties": {"name": "日南", "uri": "https://uedayou.net/jrslod/九州旅客鉄道/日南線/日南", "railname": "九州旅客鉄道日南線", "door": "NULL"}, "type": "Feature", "geometry": {"type": "Point", "coordinates": [131.38104, 31.60329]}}, {"properties": {"name": "油津", "uri": "https://uedayou.net/jrslod/九州旅客鉄道/日南線/油津", "railname": "九州旅客鉄道日南線", "door": "NULL"}, "type": "Feature", "geometry": {"type": "Point", "coordinates": [131.39608, 31.58684]}}, {"properties": {"name": "大堂津", "uri": "https://uedayou.net/jrslod/九州旅客鉄道/日南線/大堂津", "railname": "九州旅客鉄道日南線", "door": "NULL"}, "type": "Feature", "geometry": {"type": "Point", "coordinates": [131.38187, 31.55663]}}, {"properties": {"name": "南郷", "uri": "https://uedayou.net/jrslod/九州旅客鉄道/日南線/南郷", "railname": "九州旅客鉄道日南線", "door": "NULL"}, "type": "Feature", "geometry": {"type": "Point", "coordinates": [131.37216, 31.53591]}}, {"properties": {"name": "谷之口", "uri": "https://uedayou.net/jrslod/九州旅客鉄道/日南線/谷之口", "railname": "九州旅客鉄道日南線", "door": "NULL"}, "type": "Feature", "geometry": {"type": "Point", "coordinates": [131.3449, 31.53363]}}, {"properties": {"name": "榎原", "uri": "https://uedayou.net/jrslod/九州旅客鉄道/日南線/榎原", "railname": "九州旅客鉄道日南線", "door": "NULL"}, "type": "Feature", "geometry": {"type": "Point", "coordinates": [131.30692, 31.53456]}}, {"properties": {"name": "日向大束", "uri": "https://uedayou.net/jrslod/九州旅客鉄道/日南線/日向大束", "railname": "九州旅客鉄道日南線", "door": "NULL"}, "type": "Feature", "geometry": {"type": "Point", "coordinates": [131.24848, 31.51033]}}, {"properties": {"name": "日向北方", "uri": "https://uedayou.net/jrslod/九州旅客鉄道/日南線/日向北方", "railname": "九州旅客鉄道日南線", "door": "NULL"}, "type": "Feature", "geometry": {"type": "Point", "coordinates": [131.24286, 31.48279]}}, {"properties": {"name": "串間", "uri": "https://uedayou.net/jrslod/九州旅客鉄道/日南線/串間", "railname": "九州旅客鉄道日南線", "door": "NULL"}, "type": "Feature", "geometry": {"type": "Point", "coordinates": [131.23093, 31.46305]}}, {"properties": {"name": "福島今町", "uri": "https://uedayou.net/jrslod/九州旅客鉄道/日南線/福島今町", "railname": "九州旅客鉄道日南線", "door": "NULL"}, "type": "Feature", "geometry": {"type": "Point", "coordinates": [131.20379, 31.45691]}}, {"properties": {"name": "福島高松", "uri": "https://uedayou.net/jrslod/九州旅客鉄道/日南線/福島高松", "railname": "九州旅客鉄道日南線", "door": "NULL"}, "type": "Feature", "geometry": {"type": "Point", "coordinates": [131.1787, 31.45853]}}, {"properties": {"name": "大隅夏井", "uri": "https://uedayou.net/jrslod/九州旅客鉄道/日南線/大隅夏井", "railname": "九州旅客鉄道日南線", "door": "NULL"}, "type": "Feature", "geometry": {"type": "Point", "coordinates": [131.13616, 31.47003]}}, {"properties": {"name": "志布志", "uri": "https://uedayou.net/jrslod/九州旅客鉄道/日南線/志布志", "railname": "九州旅客鉄道日南線", "door": "NULL"}, "type": "Feature", "geometry": {"type": "Point", "coordinates": [131.09804, 31.47285]}}]}