{"type": "FeatureCollection", "features": [{"properties": {"name": "桂川", "uri": "https://uedayou.net/jrslod/九州旅客鉄道/篠栗線/桂川", "railname": "九州旅客鉄道篠栗線", "door": "NULL"}, "type": "Feature", "geometry": {"type": "Point", "coordinates": [130.66301, 33.58463]}}, {"properties": {"name": "筑前大分", "uri": "https://uedayou.net/jrslod/九州旅客鉄道/篠栗線/筑前大分", "railname": "九州旅客鉄道篠栗線", "door": "NULL"}, "type": "Feature", "geometry": {"type": "Point", "coordinates": [130.62973, 33.59018]}}, {"properties": {"name": "九郎原", "uri": "https://uedayou.net/jrslod/九州旅客鉄道/篠栗線/九郎原", "railname": "九州旅客鉄道篠栗線", "door": "NULL"}, "type": "Feature", "geometry": {"type": "Point", "coordinates": [130.61282, 33.59252]}}, {"properties": {"name": "城戸南蔵院前", "uri": "https://uedayou.net/jrslod/九州旅客鉄道/篠栗線/城戸南蔵院前", "railname": "九州旅客鉄道篠栗線", "door": "NULL"}, "type": "Feature", "geometry": {"type": "Point", "coordinates": [130.57243, 33.61784]}}, {"properties": {"name": "筑前山手", "uri": "https://uedayou.net/jrslod/九州旅客鉄道/篠栗線/筑前山手", "railname": "九州旅客鉄道篠栗線", "door": "NULL"}, "type": "Feature", "geometry": {"type": "Point", "coordinates": [130.55686, 33.62228]}}, {"properties": {"name": "篠栗", "uri": "https://uedayou.net/jrslod/九州旅客鉄道/篠栗線/篠栗", "railname": "九州旅客鉄道篠栗線", "door": "NULL"}, "type": "Feature", "geometry": {"type": "Point", "coordinates": [130.52329, 33.62387]}}, {"properties": {"name": "門松", "uri": "https://uedayou.net/jrslod/九州旅客鉄道/篠栗線/門松", "railname": "九州旅客鉄道篠栗線", "door": "NULL"}, "type": "Feature", "geometry": {"type": "Point", "coordinates": [130.49669, 33.6207]}}, {"properties": {"name": "長者原", "uri": "https://uedayou.net/jrslod/九州旅客鉄道/篠栗線/長者原", "railname": "九州旅客鉄道篠栗線", "door": "NULL"}, "type": "Feature", "geometry": {"type": "Point", "coordinates": [130.47822, 33.61375]}}, {"properties": {"name": "原町", "uri": "https://uedayou.net/jrslod/九州旅客鉄道/篠栗線/原町", "railname": "九州旅客鉄道篠栗線", "door": "NULL"}, "type": "Feature", "geometry": {"type": "Point", "coordinates": [130.47215, 33.61201]}}, {"properties": {"name": "柚須", "uri": "https://uedayou.net/jrslod/九州旅客鉄道/篠栗線/柚須", "railname": "九州旅客鉄道篠栗線", "door": "NULL"}, "type": "Feature", "geometry": {"type": "Point", "coordinates": [130.445, 33.6133]}}, {"properties": {"name": "吉塚", "uri": "https://uedayou.net/jrslod/九州旅客鉄道/篠栗線/吉塚", "railname": "九州旅客鉄道篠栗線", "door": "NULL"}, "type": "Feature", "geometry": {"type": "Point", "coordinates": [130.42411, 33.60839]}}]}