{"type": "FeatureCollection", "features": [{"properties": {"name": "鹿児島中央", "uri": "https://uedayou.net/jrslod/九州旅客鉄道/指宿枕崎線/鹿児島中央", "railname": "九州旅客鉄道指宿枕崎線", "door": "NULL"}, "type": "Feature", "geometry": {"type": "Point", "coordinates": [130.54216, 31.58486]}}, {"properties": {"name": "郡元", "uri": "https://uedayou.net/jrslod/九州旅客鉄道/指宿枕崎線/郡元", "railname": "九州旅客鉄道指宿枕崎線", "door": "NULL"}, "type": "Feature", "geometry": {"type": "Point", "coordinates": [130.54228, 31.56526]}}, {"properties": {"name": "南鹿児島", "uri": "https://uedayou.net/jrslod/九州旅客鉄道/指宿枕崎線/南鹿児島", "railname": "九州旅客鉄道指宿枕崎線", "door": "NULL"}, "type": "Feature", "geometry": {"type": "Point", "coordinates": [130.5434, 31.55433]}}, {"properties": {"name": "宇宿", "uri": "https://uedayou.net/jrslod/九州旅客鉄道/指宿枕崎線/宇宿", "railname": "九州旅客鉄道指宿枕崎線", "door": "NULL"}, "type": "Feature", "geometry": {"type": "Point", "coordinates": [130.53602, 31.54386]}}, {"properties": {"name": "谷山", "uri": "https://uedayou.net/jrslod/九州旅客鉄道/指宿枕崎線/谷山", "railname": "九州旅客鉄道指宿枕崎線", "door": "NULL"}, "type": "Feature", "geometry": {"type": "Point", "coordinates": [130.51962, 31.52731]}}, {"properties": {"name": "慈眼寺", "uri": "https://uedayou.net/jrslod/九州旅客鉄道/指宿枕崎線/慈眼寺", "railname": "九州旅客鉄道指宿枕崎線", "door": "NULL"}, "type": "Feature", "geometry": {"type": "Point", "coordinates": [130.50631, 31.51741]}}, {"properties": {"name": "坂之上", "uri": "https://uedayou.net/jrslod/九州旅客鉄道/指宿枕崎線/坂之上", "railname": "九州旅客鉄道指宿枕崎線", "door": "NULL"}, "type": "Feature", "geometry": {"type": "Point", "coordinates": [130.50753, 31.50005]}}, {"properties": {"name": "五位野", "uri": "https://uedayou.net/jrslod/九州旅客鉄道/指宿枕崎線/五位野", "railname": "九州旅客鉄道指宿枕崎線", "door": "NULL"}, "type": "Feature", "geometry": {"type": "Point", "coordinates": [130.50372, 31.4758]}}, {"properties": {"name": "平川", "uri": "https://uedayou.net/jrslod/九州旅客鉄道/指宿枕崎線/平川", "railname": "九州旅客鉄道指宿枕崎線", "door": "NULL"}, "type": "Feature", "geometry": {"type": "Point", "coordinates": [130.51395, 31.44882]}}, {"properties": {"name": "瀬々串", "uri": "https://uedayou.net/jrslod/九州旅客鉄道/指宿枕崎線/瀬々串", "railname": "九州旅客鉄道指宿枕崎線", "door": "NULL"}, "type": "Feature", "geometry": {"type": "Point", "coordinates": [130.52274, 31.42087]}}, {"properties": {"name": "中名", "uri": "https://uedayou.net/jrslod/九州旅客鉄道/指宿枕崎線/中名", "railname": "九州旅客鉄道指宿枕崎線", "door": "NULL"}, "type": "Feature", "geometry": {"type": "Point", "coordinates": [130.53551, 31.39323]}}, {"properties": {"name": "喜入", "uri": "https://uedayou.net/jrslod/九州旅客鉄道/指宿枕崎線/喜入", "railname": "九州旅客鉄道指宿枕崎線", "door": "NULL"}, "type": "Feature", "geometry": {"type": "Point", "coordinates": [130.53918, 31.37061]}}, {"properties": {"name": "前之浜", "uri": "https://uedayou.net/jrslod/九州旅客鉄道/指宿枕崎線/前之浜", "railname": "九州旅客鉄道指宿枕崎線", "door": "NULL"}, "type": "Feature", "geometry": {"type": "Point", "coordinates": [130.55704, 31.3433]}}, {"properties": {"name": "生見", "uri": "https://uedayou.net/jrslod/九州旅客鉄道/指宿枕崎線/生見", "railname": "九州旅客鉄道指宿枕崎線", "door": "NULL"}, "type": "Feature", "geometry": {"type": "Point", "coordinates": [130.57812, 31.30686]}}, {"properties": {"name": "薩摩今和泉", "uri": "https://uedayou.net/jrslod/九州旅客鉄道/指宿枕崎線/薩摩今和泉", "railname": "九州旅客鉄道指宿枕崎線", "door": "NULL"}, "type": "Feature", "geometry": {"type": "Point", "coordinates": [130.59926, 31.29051]}}, {"properties": {"name": "宮ヶ浜", "uri": "https://uedayou.net/jrslod/九州旅客鉄道/指宿枕崎線/宮ヶ浜", "railname": "九州旅客鉄道指宿枕崎線", "door": "NULL"}, "type": "Feature", "geometry": {"type": "Point", "coordinates": [130.61943, 31.27733]}}, {"properties": {"name": "二月田", "uri": "https://uedayou.net/jrslod/九州旅客鉄道/指宿枕崎線/二月田", "railname": "九州旅客鉄道指宿枕崎線", "door": "NULL"}, "type": "Feature", "geometry": {"type": "Point", "coordinates": [130.63035, 31.25405]}}, {"properties": {"name": "指宿", "uri": "https://uedayou.net/jrslod/九州旅客鉄道/指宿枕崎線/指宿", "railname": "九州旅客鉄道指宿枕崎線", "door": "NULL"}, "type": "Feature", "geometry": {"type": "Point", "coordinates": [130.64251, 31.23714]}}, {"properties": {"name": "山川", "uri": "https://uedayou.net/jrslod/九州旅客鉄道/指宿枕崎線/山川", "railname": "九州旅客鉄道指宿枕崎線", "door": "NULL"}, "type": "Feature", "geometry": {"type": "Point", "coordinates": [130.6297, 31.21139]}}, {"properties": {"name": "大山", "uri": "https://uedayou.net/jrslod/九州旅客鉄道/指宿枕崎線/大山", "railname": "九州旅客鉄道指宿枕崎線", "door": "NULL"}, "type": "Feature", "geometry": {"type": "Point", "coordinates": [130.59944, 31.19528]}}, {"properties": {"name": "西大山", "uri": "https://uedayou.net/jrslod/九州旅客鉄道/指宿枕崎線/西大山", "railname": "九州旅客鉄道指宿枕崎線", "door": "NULL"}, "type": "Feature", "geometry": {"type": "Point", "coordinates": [130.57606, 31.1903]}}, {"properties": {"name": "薩摩川尻", "uri": "https://uedayou.net/jrslod/九州旅客鉄道/指宿枕崎線/薩摩川尻", "railname": "九州旅客鉄道指宿枕崎線", "door": "NULL"}, "type": "Feature", "geometry": {"type": "Point", "coordinates": [130.5652, 31.19495]}}, {"properties": {"name": "東開聞", "uri": "https://uedayou.net/jrslod/九州旅客鉄道/指宿枕崎線/東開聞", "railname": "九州旅客鉄道指宿枕崎線", "door": "NULL"}, "type": "Feature", "geometry": {"type": "Point", "coordinates": [130.54952, 31.20105]}}, {"properties": {"name": "開聞", "uri": "https://uedayou.net/jrslod/九州旅客鉄道/指宿枕崎線/開聞", "railname": "九州旅客鉄道指宿枕崎線", "door": "NULL"}, "type": "Feature", "geometry": {"type": "Point", "coordinates": [130.5351, 31.20389]}}, {"properties": {"name": "入野", "uri": "https://uedayou.net/jrslod/九州旅客鉄道/指宿枕崎線/入野", "railname": "九州旅客鉄道指宿枕崎線", "door": "NULL"}, "type": "Feature", "geometry": {"type": "Point", "coordinates": [130.51883, 31.204]}}, {"properties": {"name": "頴娃", "uri": "https://uedayou.net/jrslod/九州旅客鉄道/指宿枕崎線/頴娃", "railname": "九州旅客鉄道指宿枕崎線", "door": "NULL"}, "type": "Feature", "geometry": {"type": "Point", "coordinates": [130.50052, 31.22873]}}, {"properties": {"name": "西頴娃", "uri": "https://uedayou.net/jrslod/九州旅客鉄道/指宿枕崎線/西頴娃", "railname": "九州旅客鉄道指宿枕崎線", "door": "NULL"}, "type": "Feature", "geometry": {"type": "Point", "coordinates": [130.49176, 31.24108]}}, {"properties": {"name": "御領", "uri": "https://uedayou.net/jrslod/九州旅客鉄道/指宿枕崎線/御領", "railname": "九州旅客鉄道指宿枕崎線", "door": "NULL"}, "type": "Feature", "geometry": {"type": "Point", "coordinates": [130.46896, 31.25192]}}, {"properties": {"name": "石垣", "uri": "https://uedayou.net/jrslod/九州旅客鉄道/指宿枕崎線/石垣", "railname": "九州旅客鉄道指宿枕崎線", "door": "NULL"}, "type": "Feature", "geometry": {"type": "Point", "coordinates": [130.44481, 31.25933]}}, {"properties": {"name": "水成川", "uri": "https://uedayou.net/jrslod/九州旅客鉄道/指宿枕崎線/水成川", "railname": "九州旅客鉄道指宿枕崎線", "door": "NULL"}, "type": "Feature", "geometry": {"type": "Point", "coordinates": [130.43086, 31.25737]}}, {"properties": {"name": "頴娃大川", "uri": "https://uedayou.net/jrslod/九州旅客鉄道/指宿枕崎線/頴娃大川", "railname": "九州旅客鉄道指宿枕崎線", "door": "NULL"}, "type": "Feature", "geometry": {"type": "Point", "coordinates": [130.41376, 31.25776]}}, {"properties": {"name": "松ヶ浦", "uri": "https://uedayou.net/jrslod/九州旅客鉄道/指宿枕崎線/松ヶ浦", "railname": "九州旅客鉄道指宿枕崎線", "door": "NULL"}, "type": "Feature", "geometry": {"type": "Point", "coordinates": [130.39498, 31.25875]}}, {"properties": {"name": "薩摩塩屋", "uri": "https://uedayou.net/jrslod/九州旅客鉄道/指宿枕崎線/薩摩塩屋", "railname": "九州旅客鉄道指宿枕崎線", "door": "NULL"}, "type": "Feature", "geometry": {"type": "Point", "coordinates": [130.37581, 31.25716]}}, {"properties": {"name": "白沢", "uri": "https://uedayou.net/jrslod/九州旅客鉄道/指宿枕崎線/白沢", "railname": "九州旅客鉄道指宿枕崎線", "door": "NULL"}, "type": "Feature", "geometry": {"type": "Point", "coordinates": [130.35627, 31.25689]}}, {"properties": {"name": "薩摩板敷", "uri": "https://uedayou.net/jrslod/九州旅客鉄道/指宿枕崎線/薩摩板敷", "railname": "九州旅客鉄道指宿枕崎線", "door": "NULL"}, "type": "Feature", "geometry": {"type": "Point", "coordinates": [130.3307, 31.26225]}}, {"properties": {"name": "枕崎", "uri": "https://uedayou.net/jrslod/九州旅客鉄道/指宿枕崎線/枕崎", "railname": "九州旅客鉄道指宿枕崎線", "door": "NULL"}, "type": "Feature", "geometry": {"type": "Point", "coordinates": [130.29962, 31.27177]}}]}