{"type": "FeatureCollection", "features": [{"properties": {"name": "健軍町", "uri": "https://uedayou.net/jrslod/熊本市交通局/熊本市電健軍線/健軍町", "railname": "熊本市交通局熊本市電健軍線", "door": "NULL"}, "type": "Feature", "geometry": {"type": "Point", "coordinates": [130.7613, 32.77832]}}, {"properties": {"name": "健軍交番前", "uri": "https://uedayou.net/jrslod/熊本市交通局/熊本市電健軍線/健軍交番前", "railname": "熊本市交通局熊本市電健軍線", "door": "NULL"}, "type": "Feature", "geometry": {"type": "Point", "coordinates": [130.7577, 32.77937]}}, {"properties": {"name": "動植物園入口", "uri": "https://uedayou.net/jrslod/熊本市交通局/熊本市電健軍線/動植物園入口", "railname": "熊本市交通局熊本市電健軍線", "door": "NULL"}, "type": "Feature", "geometry": {"type": "Point", "coordinates": [130.75518, 32.78032]}}, {"properties": {"name": "健軍校前", "uri": "https://uedayou.net/jrslod/熊本市交通局/熊本市電健軍線/健軍校前", "railname": "熊本市交通局熊本市電健軍線", "door": "NULL"}, "type": "Feature", "geometry": {"type": "Point", "coordinates": [130.75135, 32.78175]}}, {"properties": {"name": "神水交差点", "uri": "https://uedayou.net/jrslod/熊本市交通局/熊本市電健軍線/神水交差点", "railname": "熊本市交通局熊本市電健軍線", "door": "NULL"}, "type": "Feature", "geometry": {"type": "Point", "coordinates": [130.74533, 32.78359]}}, {"properties": {"name": "八丁馬場", "uri": "https://uedayou.net/jrslod/熊本市交通局/熊本市電健軍線/八丁馬場", "railname": "熊本市交通局熊本市電健軍線", "door": "NULL"}, "type": "Feature", "geometry": {"type": "Point", "coordinates": [130.74195, 32.78365]}}, {"properties": {"name": "商業高校前", "uri": "https://uedayou.net/jrslod/熊本市交通局/熊本市電健軍線/商業高校前", "railname": "熊本市交通局熊本市電健軍線", "door": "NULL"}, "type": "Feature", "geometry": {"type": "Point", "coordinates": [130.73872, 32.78565]}}, {"properties": {"name": "市立体育館前", "uri": "https://uedayou.net/jrslod/熊本市交通局/熊本市電健軍線/市立体育館前", "railname": "熊本市交通局熊本市電健軍線", "door": "NULL"}, "type": "Feature", "geometry": {"type": "Point", "coordinates": [130.73497, 32.78822]}}, {"properties": {"name": "水前寺公園", "uri": "https://uedayou.net/jrslod/熊本市交通局/熊本市電健軍線/水前寺公園", "railname": "熊本市交通局熊本市電健軍線", "door": "NULL"}, "type": "Feature", "geometry": {"type": "Point", "coordinates": [130.73204, 32.79015]}}]}