{"type": "FeatureCollection", "features": [{"properties": {"name": "熊本駅前", "uri": "https://uedayou.net/jrslod/熊本市交通局/熊本市電幹線/熊本駅前", "railname": "熊本市交通局熊本市電幹線", "door": "NULL"}, "type": "Feature", "geometry": {"type": "Point", "coordinates": [130.69015, 32.78988]}}, {"properties": {"name": "祗園橋", "uri": "https://uedayou.net/jrslod/熊本市交通局/熊本市電幹線/祗園橋", "railname": "熊本市交通局熊本市電幹線", "door": "NULL"}, "type": "Feature", "geometry": {"type": "Point", "coordinates": [130.6951, 32.7929]}}, {"properties": {"name": "呉服町", "uri": "https://uedayou.net/jrslod/熊本市交通局/熊本市電幹線/呉服町", "railname": "熊本市交通局熊本市電幹線", "door": "NULL"}, "type": "Feature", "geometry": {"type": "Point", "coordinates": [130.69679, 32.79532]}}, {"properties": {"name": "河原町", "uri": "https://uedayou.net/jrslod/熊本市交通局/熊本市電幹線/河原町", "railname": "熊本市交通局熊本市電幹線", "door": "NULL"}, "type": "Feature", "geometry": {"type": "Point", "coordinates": [130.70108, 32.79481]}}, {"properties": {"name": "慶徳校前", "uri": "https://uedayou.net/jrslod/熊本市交通局/熊本市電幹線/慶徳校前", "railname": "熊本市交通局熊本市電幹線", "door": "NULL"}, "type": "Feature", "geometry": {"type": "Point", "coordinates": [130.70247, 32.79687]}}, {"properties": {"name": "辛島町", "uri": "https://uedayou.net/jrslod/熊本市交通局/熊本市電幹線/辛島町", "railname": "熊本市交通局熊本市電幹線", "door": "NULL"}, "type": "Feature", "geometry": {"type": "Point", "coordinates": [130.70504, 32.79871]}}, {"properties": {"name": "花畑町", "uri": "https://uedayou.net/jrslod/熊本市交通局/熊本市電幹線/花畑町", "railname": "熊本市交通局熊本市電幹線", "door": "NULL"}, "type": "Feature", "geometry": {"type": "Point", "coordinates": [130.70578, 32.80142]}}, {"properties": {"name": "熊本城・市役所前", "uri": "https://uedayou.net/jrslod/熊本市交通局/熊本市電幹線/熊本城・市役所前", "railname": "熊本市交通局熊本市電幹線", "door": "NULL"}, "type": "Feature", "geometry": {"type": "Point", "coordinates": [130.70815, 32.80403]}}, {"properties": {"name": "通町筋", "uri": "https://uedayou.net/jrslod/熊本市交通局/熊本市電幹線/通町筋", "railname": "熊本市交通局熊本市電幹線", "door": "NULL"}, "type": "Feature", "geometry": {"type": "Point", "coordinates": [130.71007, 32.80305]}}, {"properties": {"name": "水道町", "uri": "https://uedayou.net/jrslod/熊本市交通局/熊本市電幹線/水道町", "railname": "熊本市交通局熊本市電幹線", "door": "NULL"}, "type": "Feature", "geometry": {"type": "Point", "coordinates": [130.71229, 32.80243]}}]}