{"type": "FeatureCollection", "features": [{"properties": {"name": "糸魚川", "uri": "https://uedayou.net/jrslod/西日本旅客鉄道/大糸線/糸魚川", "railname": "西日本旅客鉄道大糸線", "door": "NULL"}, "type": "Feature", "geometry": {"type": "Point", "coordinates": [137.86409, 37.04423]}}, {"properties": {"name": "姫川", "uri": "https://uedayou.net/jrslod/西日本旅客鉄道/大糸線/姫川", "railname": "西日本旅客鉄道大糸線", "door": "NULL"}, "type": "Feature", "geometry": {"type": "Point", "coordinates": [137.86067, 37.02065]}}, {"properties": {"name": "頸城大野", "uri": "https://uedayou.net/jrslod/西日本旅客鉄道/大糸線/頸城大野", "railname": "西日本旅客鉄道大糸線", "door": "NULL"}, "type": "Feature", "geometry": {"type": "Point", "coordinates": [137.87266, 37.00581]}}, {"properties": {"name": "根知", "uri": "https://uedayou.net/jrslod/西日本旅客鉄道/大糸線/根知", "railname": "西日本旅客鉄道大糸線", "door": "NULL"}, "type": "Feature", "geometry": {"type": "Point", "coordinates": [137.86722, 36.96698]}}, {"properties": {"name": "小滝", "uri": "https://uedayou.net/jrslod/西日本旅客鉄道/大糸線/小滝", "railname": "西日本旅客鉄道大糸線", "door": "NULL"}, "type": "Feature", "geometry": {"type": "Point", "coordinates": [137.85986, 36.93803]}}, {"properties": {"name": "平岩", "uri": "https://uedayou.net/jrslod/西日本旅客鉄道/大糸線/平岩", "railname": "西日本旅客鉄道大糸線", "door": "NULL"}, "type": "Feature", "geometry": {"type": "Point", "coordinates": [137.86539, 36.88722]}}, {"properties": {"name": "北小谷", "uri": "https://uedayou.net/jrslod/西日本旅客鉄道/大糸線/北小谷", "railname": "西日本旅客鉄道大糸線", "door": "NULL"}, "type": "Feature", "geometry": {"type": "Point", "coordinates": [137.90645, 36.84288]}}, {"properties": {"name": "中土", "uri": "https://uedayou.net/jrslod/西日本旅客鉄道/大糸線/中土", "railname": "西日本旅客鉄道大糸線", "door": "NULL"}, "type": "Feature", "geometry": {"type": "Point", "coordinates": [137.90764, 36.80586]}}, {"properties": {"name": "南小谷", "uri": "https://uedayou.net/jrslod/西日本旅客鉄道/大糸線/南小谷", "railname": "西日本旅客鉄道大糸線", "door": "NULL"}, "type": "Feature", "geometry": {"type": "Point", "coordinates": [137.90845, 36.7747]}}]}