{"type": "FeatureCollection", "features": [{"properties": {"name": "大阪", "uri": "https://uedayou.net/jrslod/西日本旅客鉄道/大阪環状線/大阪", "railname": "西日本旅客鉄道大阪環状線", "door": "NULL"}, "type": "Feature", "geometry": {"type": "Point", "coordinates": [135.49705, 34.70281]}}, {"properties": {"name": "福島", "uri": "https://uedayou.net/jrslod/西日本旅客鉄道/大阪環状線/福島", "railname": "西日本旅客鉄道大阪環状線", "door": "NULL"}, "type": "Feature", "geometry": {"type": "Point", "coordinates": [135.48736, 34.69757]}}, {"properties": {"name": "野田", "uri": "https://uedayou.net/jrslod/西日本旅客鉄道/大阪環状線/野田", "railname": "西日本旅客鉄道大阪環状線", "door": "NULL"}, "type": "Feature", "geometry": {"type": "Point", "coordinates": [135.47567, 34.6895]}}, {"properties": {"name": "西九条", "uri": "https://uedayou.net/jrslod/西日本旅客鉄道/大阪環状線/西九条", "railname": "西日本旅客鉄道大阪環状線", "door": "NULL"}, "type": "Feature", "geometry": {"type": "Point", "coordinates": [135.4669, 34.68275]}}, {"properties": {"name": "弁天町", "uri": "https://uedayou.net/jrslod/西日本旅客鉄道/大阪環状線/弁天町", "railname": "西日本旅客鉄道大阪環状線", "door": "NULL"}, "type": "Feature", "geometry": {"type": "Point", "coordinates": [135.46204, 34.66992]}}, {"properties": {"name": "大正", "uri": "https://uedayou.net/jrslod/西日本旅客鉄道/大阪環状線/大正", "railname": "西日本旅客鉄道大阪環状線", "door": "NULL"}, "type": "Feature", "geometry": {"type": "Point", "coordinates": [135.47903, 34.66587]}}, {"properties": {"name": "芦原橋", "uri": "https://uedayou.net/jrslod/西日本旅客鉄道/大阪環状線/芦原橋", "railname": "西日本旅客鉄道大阪環状線", "door": "NULL"}, "type": "Feature", "geometry": {"type": "Point", "coordinates": [135.48964, 34.65814]}}, {"properties": {"name": "今宮", "uri": "https://uedayou.net/jrslod/西日本旅客鉄道/大阪環状線/今宮", "railname": "西日本旅客鉄道大阪環状線", "door": "NULL"}, "type": "Feature", "geometry": {"type": "Point", "coordinates": [135.49271, 34.65394]}}, {"properties": {"name": "新今宮", "uri": "https://uedayou.net/jrslod/西日本旅客鉄道/大阪環状線/新今宮", "railname": "西日本旅客鉄道大阪環状線", "door": "NULL"}, "type": "Feature", "geometry": {"type": "Point", "coordinates": [135.50066, 34.65019]}}, {"properties": {"name": "天王寺", "uri": "https://uedayou.net/jrslod/西日本旅客鉄道/大阪環状線/天王寺", "railname": "西日本旅客鉄道大阪環状線", "door": "NULL"}, "type": "Feature", "geometry": {"type": "Point", "coordinates": [135.51602, 34.64665]}}, {"properties": {"name": "寺田町", "uri": "https://uedayou.net/jrslod/西日本旅客鉄道/大阪環状線/寺田町", "railname": "西日本旅客鉄道大阪環状線", "door": "NULL"}, "type": "Feature", "geometry": {"type": "Point", "coordinates": [135.52319, 34.64755]}}, {"properties": {"name": "桃谷", "uri": "https://uedayou.net/jrslod/西日本旅客鉄道/大阪環状線/桃谷", "railname": "西日本旅客鉄道大阪環状線", "door": "NULL"}, "type": "Feature", "geometry": {"type": "Point", "coordinates": [135.52823, 34.65925]}}, {"properties": {"name": "鶴橋", "uri": "https://uedayou.net/jrslod/西日本旅客鉄道/大阪環状線/鶴橋", "railname": "西日本旅客鉄道大阪環状線", "door": "NULL"}, "type": "Feature", "geometry": {"type": "Point", "coordinates": [135.53023, 34.66532]}}, {"properties": {"name": "玉造", "uri": "https://uedayou.net/jrslod/西日本旅客鉄道/大阪環状線/玉造", "railname": "西日本旅客鉄道大阪環状線", "door": "NULL"}, "type": "Feature", "geometry": {"type": "Point", "coordinates": [135.53271, 34.67273]}}, {"properties": {"name": "森ノ宮", "uri": "https://uedayou.net/jrslod/西日本旅客鉄道/大阪環状線/森ノ宮", "railname": "西日本旅客鉄道大阪環状線", "door": "NULL"}, "type": "Feature", "geometry": {"type": "Point", "coordinates": [135.53397, 34.68108]}}, {"properties": {"name": "大阪城公園", "uri": "https://uedayou.net/jrslod/西日本旅客鉄道/大阪環状線/大阪城公園", "railname": "西日本旅客鉄道大阪環状線", "door": "NULL"}, "type": "Feature", "geometry": {"type": "Point", "coordinates": [135.53436, 34.68772]}}, {"properties": {"name": "京橋", "uri": "https://uedayou.net/jrslod/西日本旅客鉄道/大阪環状線/京橋", "railname": "西日本旅客鉄道大阪環状線", "door": "NULL"}, "type": "Feature", "geometry": {"type": "Point", "coordinates": [135.53422, 34.69617]}}, {"properties": {"name": "桜ノ宮", "uri": "https://uedayou.net/jrslod/西日本旅客鉄道/大阪環状線/桜ノ宮", "railname": "西日本旅客鉄道大阪環状線", "door": "NULL"}, "type": "Feature", "geometry": {"type": "Point", "coordinates": [135.52109, 34.70509]}}, {"properties": {"name": "天満", "uri": "https://uedayou.net/jrslod/西日本旅客鉄道/大阪環状線/天満", "railname": "西日本旅客鉄道大阪環状線", "door": "NULL"}, "type": "Feature", "geometry": {"type": "Point", "coordinates": [135.51317, 34.70443]}}]}