{"type": "FeatureCollection", "features": [{"properties": {"name": "富山", "uri": "https://uedayou.net/jrslod/西日本旅客鉄道/高山線/富山", "railname": "西日本旅客鉄道高山線", "door": "NULL"}, "type": "Feature", "geometry": {"type": "Point", "coordinates": [137.21445, 36.70118]}}, {"properties": {"name": "西富山", "uri": "https://uedayou.net/jrslod/西日本旅客鉄道/高山線/西富山", "railname": "西日本旅客鉄道高山線", "door": "NULL"}, "type": "Feature", "geometry": {"type": "Point", "coordinates": [137.17664, 36.69899]}}, {"properties": {"name": "婦中鵜坂", "uri": "https://uedayou.net/jrslod/西日本旅客鉄道/高山線/婦中鵜坂", "railname": "西日本旅客鉄道高山線", "door": "NULL"}, "type": "Feature", "geometry": {"type": "Point", "coordinates": [137.16862, 36.67782]}}, {"properties": {"name": "速星", "uri": "https://uedayou.net/jrslod/西日本旅客鉄道/高山線/速星", "railname": "西日本旅客鉄道高山線", "door": "NULL"}, "type": "Feature", "geometry": {"type": "Point", "coordinates": [137.16041, 36.66402]}}, {"properties": {"name": "千里", "uri": "https://uedayou.net/jrslod/西日本旅客鉄道/高山線/千里", "railname": "西日本旅客鉄道高山線", "door": "NULL"}, "type": "Feature", "geometry": {"type": "Point", "coordinates": [137.13245, 36.63446]}}, {"properties": {"name": "越中八尾", "uri": "https://uedayou.net/jrslod/西日本旅客鉄道/高山線/越中八尾", "railname": "西日本旅客鉄道高山線", "door": "NULL"}, "type": "Feature", "geometry": {"type": "Point", "coordinates": [137.13815, 36.59185]}}, {"properties": {"name": "東八尾", "uri": "https://uedayou.net/jrslod/西日本旅客鉄道/高山線/東八尾", "railname": "西日本旅客鉄道高山線", "door": "NULL"}, "type": "Feature", "geometry": {"type": "Point", "coordinates": [137.17495, 36.58966]}}, {"properties": {"name": "笹津", "uri": "https://uedayou.net/jrslod/西日本旅客鉄道/高山線/笹津", "railname": "西日本旅客鉄道高山線", "door": "NULL"}, "type": "Feature", "geometry": {"type": "Point", "coordinates": [137.21115, 36.56205]}}, {"properties": {"name": "楡原", "uri": "https://uedayou.net/jrslod/西日本旅客鉄道/高山線/楡原", "railname": "西日本旅客鉄道高山線", "door": "NULL"}, "type": "Feature", "geometry": {"type": "Point", "coordinates": [137.22872, 36.52924]}}, {"properties": {"name": "猪谷", "uri": "https://uedayou.net/jrslod/西日本旅客鉄道/高山線/猪谷", "railname": "西日本旅客鉄道高山線", "door": "NULL"}, "type": "Feature", "geometry": {"type": "Point", "coordinates": [137.2374, 36.4722]}}]}