{"type": "FeatureCollection", "features": [{"properties": {"name": "宍道", "uri": "https://uedayou.net/jrslod/西日本旅客鉄道/木次線/宍道", "railname": "西日本旅客鉄道木次線", "door": "NULL"}, "type": "Feature", "geometry": {"type": "Point", "coordinates": [132.90863, 35.40642]}}, {"properties": {"name": "南宍道", "uri": "https://uedayou.net/jrslod/西日本旅客鉄道/木次線/南宍道", "railname": "西日本旅客鉄道木次線", "door": "NULL"}, "type": "Feature", "geometry": {"type": "Point", "coordinates": [132.91784, 35.38005]}}, {"properties": {"name": "加茂中", "uri": "https://uedayou.net/jrslod/西日本旅客鉄道/木次線/加茂中", "railname": "西日本旅客鉄道木次線", "door": "NULL"}, "type": "Feature", "geometry": {"type": "Point", "coordinates": [132.91076, 35.34413]}}, {"properties": {"name": "幡屋", "uri": "https://uedayou.net/jrslod/西日本旅客鉄道/木次線/幡屋", "railname": "西日本旅客鉄道木次線", "door": "NULL"}, "type": "Feature", "geometry": {"type": "Point", "coordinates": [132.93969, 35.33474]}}, {"properties": {"name": "出雲大東", "uri": "https://uedayou.net/jrslod/西日本旅客鉄道/木次線/出雲大東", "railname": "西日本旅客鉄道木次線", "door": "NULL"}, "type": "Feature", "geometry": {"type": "Point", "coordinates": [132.95803, 35.32624]}}, {"properties": {"name": "南大東", "uri": "https://uedayou.net/jrslod/西日本旅客鉄道/木次線/南大東", "railname": "西日本旅客鉄道木次線", "door": "NULL"}, "type": "Feature", "geometry": {"type": "Point", "coordinates": [132.9285, 35.30772]}}, {"properties": {"name": "木次", "uri": "https://uedayou.net/jrslod/西日本旅客鉄道/木次線/木次", "railname": "西日本旅客鉄道木次線", "door": "NULL"}, "type": "Feature", "geometry": {"type": "Point", "coordinates": [132.90192, 35.29498]}}, {"properties": {"name": "日登", "uri": "https://uedayou.net/jrslod/西日本旅客鉄道/木次線/日登", "railname": "西日本旅客鉄道木次線", "door": "NULL"}, "type": "Feature", "geometry": {"type": "Point", "coordinates": [132.93084, 35.27671]}}, {"properties": {"name": "下久野", "uri": "https://uedayou.net/jrslod/西日本旅客鉄道/木次線/下久野", "railname": "西日本旅客鉄道木次線", "door": "NULL"}, "type": "Feature", "geometry": {"type": "Point", "coordinates": [132.99193, 35.26467]}}, {"properties": {"name": "出雲八代", "uri": "https://uedayou.net/jrslod/西日本旅客鉄道/木次線/出雲八代", "railname": "西日本旅客鉄道木次線", "door": "NULL"}, "type": "Feature", "geometry": {"type": "Point", "coordinates": [133.0018, 35.22697]}}, {"properties": {"name": "出雲三成", "uri": "https://uedayou.net/jrslod/西日本旅客鉄道/木次線/出雲三成", "railname": "西日本旅客鉄道木次線", "door": "NULL"}, "type": "Feature", "geometry": {"type": "Point", "coordinates": [133.00999, 35.19659]}}, {"properties": {"name": "亀嵩", "uri": "https://uedayou.net/jrslod/西日本旅客鉄道/木次線/亀嵩", "railname": "西日本旅客鉄道木次線", "door": "NULL"}, "type": "Feature", "geometry": {"type": "Point", "coordinates": [133.05243, 35.20598]}}, {"properties": {"name": "出雲横田", "uri": "https://uedayou.net/jrslod/西日本旅客鉄道/木次線/出雲横田", "railname": "西日本旅客鉄道木次線", "door": "NULL"}, "type": "Feature", "geometry": {"type": "Point", "coordinates": [133.09304, 35.1773]}}, {"properties": {"name": "八川", "uri": "https://uedayou.net/jrslod/西日本旅客鉄道/木次線/八川", "railname": "西日本旅客鉄道木次線", "door": "NULL"}, "type": "Feature", "geometry": {"type": "Point", "coordinates": [133.08991, 35.14914]}}, {"properties": {"name": "出雲坂根", "uri": "https://uedayou.net/jrslod/西日本旅客鉄道/木次線/出雲坂根", "railname": "西日本旅客鉄道木次線", "door": "NULL"}, "type": "Feature", "geometry": {"type": "Point", "coordinates": [133.1204, 35.10256]}}, {"properties": {"name": "三井野原", "uri": "https://uedayou.net/jrslod/西日本旅客鉄道/木次線/三井野原", "railname": "西日本旅客鉄道木次線", "door": "NULL"}, "type": "Feature", "geometry": {"type": "Point", "coordinates": [133.11614, 35.09092]}}, {"properties": {"name": "油木", "uri": "https://uedayou.net/jrslod/西日本旅客鉄道/木次線/油木", "railname": "西日本旅客鉄道木次線", "door": "NULL"}, "type": "Feature", "geometry": {"type": "Point", "coordinates": [133.11928, 35.04493]}}, {"properties": {"name": "備後落合", "uri": "https://uedayou.net/jrslod/西日本旅客鉄道/木次線/備後落合", "railname": "西日本旅客鉄道木次線", "door": "NULL"}, "type": "Feature", "geometry": {"type": "Point", "coordinates": [133.14871, 35.00128]}}]}