{"type": "FeatureCollection", "features": [{"properties": {"name": "新大阪", "uri": "https://uedayou.net/jrslod/西日本旅客鉄道/山陽新幹線/新大阪", "railname": "西日本旅客鉄道山陽新幹線", "door": "NULL"}, "type": "Feature", "geometry": {"type": "Point", "coordinates": [135.49791, 34.73268]}}, {"properties": {"name": "新神戸", "uri": "https://uedayou.net/jrslod/西日本旅客鉄道/山陽新幹線/新神戸", "railname": "西日本旅客鉄道山陽新幹線", "door": "1977/12/01 00:00"}, "type": "Feature", "geometry": {"type": "Point", "coordinates": [135.19655, 34.70699]}}, {"properties": {"name": "西明石", "uri": "https://uedayou.net/jrslod/西日本旅客鉄道/山陽新幹線/西明石", "railname": "西日本旅客鉄道山陽新幹線", "door": "NULL"}, "type": "Feature", "geometry": {"type": "Point", "coordinates": [134.96136, 34.66694]}}, {"properties": {"name": "姫路", "uri": "https://uedayou.net/jrslod/西日本旅客鉄道/山陽新幹線/姫路", "railname": "西日本旅客鉄道山陽新幹線", "door": "NULL"}, "type": "Feature", "geometry": {"type": "Point", "coordinates": [134.69225, 34.82626]}}, {"properties": {"name": "相生", "uri": "https://uedayou.net/jrslod/西日本旅客鉄道/山陽新幹線/相生", "railname": "西日本旅客鉄道山陽新幹線", "door": "NULL"}, "type": "Feature", "geometry": {"type": "Point", "coordinates": [134.47661, 34.81813]}}, {"properties": {"name": "岡山", "uri": "https://uedayou.net/jrslod/西日本旅客鉄道/山陽新幹線/岡山", "railname": "西日本旅客鉄道山陽新幹線", "door": "2019/12/01 00:00"}, "type": "Feature", "geometry": {"type": "Point", "coordinates": [133.91791, 34.66545]}}, {"properties": {"name": "新倉敷", "uri": "https://uedayou.net/jrslod/西日本旅客鉄道/山陽新幹線/新倉敷", "railname": "西日本旅客鉄道山陽新幹線", "door": "NULL"}, "type": "Feature", "geometry": {"type": "Point", "coordinates": [133.67663, 34.56397]}}, {"properties": {"name": "福山", "uri": "https://uedayou.net/jrslod/西日本旅客鉄道/山陽新幹線/福山", "railname": "西日本旅客鉄道山陽新幹線", "door": "NULL"}, "type": "Feature", "geometry": {"type": "Point", "coordinates": [133.3619, 34.48931]}}, {"properties": {"name": "新尾道", "uri": "https://uedayou.net/jrslod/西日本旅客鉄道/山陽新幹線/新尾道", "railname": "西日本旅客鉄道山陽新幹線", "door": "NULL"}, "type": "Feature", "geometry": {"type": "Point", "coordinates": [133.19219, 34.43082]}}, {"properties": {"name": "三原", "uri": "https://uedayou.net/jrslod/西日本旅客鉄道/山陽新幹線/三原", "railname": "西日本旅客鉄道山陽新幹線", "door": "NULL"}, "type": "Feature", "geometry": {"type": "Point", "coordinates": [133.08543, 34.4008]}}, {"properties": {"name": "東広島", "uri": "https://uedayou.net/jrslod/西日本旅客鉄道/山陽新幹線/東広島", "railname": "西日本旅客鉄道山陽新幹線", "door": "NULL"}, "type": "Feature", "geometry": {"type": "Point", "coordinates": [132.75895, 34.38887]}}, {"properties": {"name": "広島", "uri": "https://uedayou.net/jrslod/西日本旅客鉄道/山陽新幹線/広島", "railname": "西日本旅客鉄道山陽新幹線", "door": "NULL"}, "type": "Feature", "geometry": {"type": "Point", "coordinates": [132.47607, 34.39792]}}, {"properties": {"name": "新岩国", "uri": "https://uedayou.net/jrslod/西日本旅客鉄道/山陽新幹線/新岩国", "railname": "西日本旅客鉄道山陽新幹線", "door": "NULL"}, "type": "Feature", "geometry": {"type": "Point", "coordinates": [132.1507, 34.16656]}}, {"properties": {"name": "徳山", "uri": "https://uedayou.net/jrslod/西日本旅客鉄道/山陽新幹線/徳山", "railname": "西日本旅客鉄道山陽新幹線", "door": "NULL"}, "type": "Feature", "geometry": {"type": "Point", "coordinates": [131.80213, 34.05101]}}, {"properties": {"name": "新山口", "uri": "https://uedayou.net/jrslod/西日本旅客鉄道/山陽新幹線/新山口", "railname": "西日本旅客鉄道山陽新幹線", "door": "NULL"}, "type": "Feature", "geometry": {"type": "Point", "coordinates": [131.3954, 34.09226]}}, {"properties": {"name": "厚狭", "uri": "https://uedayou.net/jrslod/西日本旅客鉄道/山陽新幹線/厚狭", "railname": "西日本旅客鉄道山陽新幹線", "door": "NULL"}, "type": "Feature", "geometry": {"type": "Point", "coordinates": [131.16093, 34.05279]}}, {"properties": {"name": "新下関", "uri": "https://uedayou.net/jrslod/西日本旅客鉄道/山陽新幹線/新下関", "railname": "西日本旅客鉄道山陽新幹線", "door": "NULL"}, "type": "Feature", "geometry": {"type": "Point", "coordinates": [130.94892, 34.00632]}}, {"properties": {"name": "小倉", "uri": "https://uedayou.net/jrslod/西日本旅客鉄道/山陽新幹線/小倉", "railname": "西日本旅客鉄道山陽新幹線", "door": "NULL"}, "type": "Feature", "geometry": {"type": "Point", "coordinates": [130.8831, 33.88731]}}, {"properties": {"name": "博多", "uri": "https://uedayou.net/jrslod/西日本旅客鉄道/山陽新幹線/博多", "railname": "西日本旅客鉄道山陽新幹線", "door": "NULL"}, "type": "Feature", "geometry": {"type": "Point", "coordinates": [130.42108, 33.58776]}}]}