{"type": "FeatureCollection", "features": [{"properties": {"name": "加古川", "uri": "https://uedayou.net/jrslod/西日本旅客鉄道/加古川線/加古川", "railname": "西日本旅客鉄道加古川線", "door": "NULL"}, "type": "Feature", "geometry": {"type": "Point", "coordinates": [134.83935, 34.76813]}}, {"properties": {"name": "日岡", "uri": "https://uedayou.net/jrslod/西日本旅客鉄道/加古川線/日岡", "railname": "西日本旅客鉄道加古川線", "door": "NULL"}, "type": "Feature", "geometry": {"type": "Point", "coordinates": [134.85714, 34.77863]}}, {"properties": {"name": "神野", "uri": "https://uedayou.net/jrslod/西日本旅客鉄道/加古川線/神野", "railname": "西日本旅客鉄道加古川線", "door": "NULL"}, "type": "Feature", "geometry": {"type": "Point", "coordinates": [134.87954, 34.79112]}}, {"properties": {"name": "厄神", "uri": "https://uedayou.net/jrslod/西日本旅客鉄道/加古川線/厄神", "railname": "西日本旅客鉄道加古川線", "door": "NULL"}, "type": "Feature", "geometry": {"type": "Point", "coordinates": [134.90619, 34.79432]}}, {"properties": {"name": "市場", "uri": "https://uedayou.net/jrslod/西日本旅客鉄道/加古川線/市場", "railname": "西日本旅客鉄道加古川線", "door": "NULL"}, "type": "Feature", "geometry": {"type": "Point", "coordinates": [134.93263, 34.81969]}}, {"properties": {"name": "小野町", "uri": "https://uedayou.net/jrslod/西日本旅客鉄道/加古川線/小野町", "railname": "西日本旅客鉄道加古川線", "door": "NULL"}, "type": "Feature", "geometry": {"type": "Point", "coordinates": [134.91898, 34.83327]}}, {"properties": {"name": "粟生", "uri": "https://uedayou.net/jrslod/西日本旅客鉄道/加古川線/粟生", "railname": "西日本旅客鉄道加古川線", "door": "NULL"}, "type": "Feature", "geometry": {"type": "Point", "coordinates": [134.90957, 34.85747]}}, {"properties": {"name": "河合西", "uri": "https://uedayou.net/jrslod/西日本旅客鉄道/加古川線/河合西", "railname": "西日本旅客鉄道加古川線", "door": "NULL"}, "type": "Feature", "geometry": {"type": "Point", "coordinates": [134.91953, 34.87929]}}, {"properties": {"name": "青野ヶ原", "uri": "https://uedayou.net/jrslod/西日本旅客鉄道/加古川線/青野ヶ原", "railname": "西日本旅客鉄道加古川線", "door": "NULL"}, "type": "Feature", "geometry": {"type": "Point", "coordinates": [134.92818, 34.89785]}}, {"properties": {"name": "社町", "uri": "https://uedayou.net/jrslod/西日本旅客鉄道/加古川線/社町", "railname": "西日本旅客鉄道加古川線", "door": "NULL"}, "type": "Feature", "geometry": {"type": "Point", "coordinates": [134.9343, 34.91998]}}, {"properties": {"name": "滝野", "uri": "https://uedayou.net/jrslod/西日本旅客鉄道/加古川線/滝野", "railname": "西日本旅客鉄道加古川線", "door": "NULL"}, "type": "Feature", "geometry": {"type": "Point", "coordinates": [134.95527, 34.94124]}}, {"properties": {"name": "滝", "uri": "https://uedayou.net/jrslod/西日本旅客鉄道/加古川線/滝", "railname": "西日本旅客鉄道加古川線", "door": "NULL"}, "type": "Feature", "geometry": {"type": "Point", "coordinates": [134.96221, 34.94847]}}, {"properties": {"name": "西脇市", "uri": "https://uedayou.net/jrslod/西日本旅客鉄道/加古川線/西脇市", "railname": "西日本旅客鉄道加古川線", "door": "NULL"}, "type": "Feature", "geometry": {"type": "Point", "coordinates": [134.96903, 34.97204]}}, {"properties": {"name": "新西脇", "uri": "https://uedayou.net/jrslod/西日本旅客鉄道/加古川線/新西脇", "railname": "西日本旅客鉄道加古川線", "door": "NULL"}, "type": "Feature", "geometry": {"type": "Point", "coordinates": [134.97719, 34.9778]}}, {"properties": {"name": "比延", "uri": "https://uedayou.net/jrslod/西日本旅客鉄道/加古川線/比延", "railname": "西日本旅客鉄道加古川線", "door": "NULL"}, "type": "Feature", "geometry": {"type": "Point", "coordinates": [134.99582, 34.9891]}}, {"properties": {"name": "日本へそ公園", "uri": "https://uedayou.net/jrslod/西日本旅客鉄道/加古川線/日本へそ公園", "railname": "西日本旅客鉄道加古川線", "door": "NULL"}, "type": "Feature", "geometry": {"type": "Point", "coordinates": [134.9977, 35.00172]}}, {"properties": {"name": "黒田庄", "uri": "https://uedayou.net/jrslod/西日本旅客鉄道/加古川線/黒田庄", "railname": "西日本旅客鉄道加古川線", "door": "NULL"}, "type": "Feature", "geometry": {"type": "Point", "coordinates": [134.99257, 35.02308]}}, {"properties": {"name": "本黒田", "uri": "https://uedayou.net/jrslod/西日本旅客鉄道/加古川線/本黒田", "railname": "西日本旅客鉄道加古川線", "door": "NULL"}, "type": "Feature", "geometry": {"type": "Point", "coordinates": [134.99595, 35.05298]}}, {"properties": {"name": "船町口", "uri": "https://uedayou.net/jrslod/西日本旅客鉄道/加古川線/船町口", "railname": "西日本旅客鉄道加古川線", "door": "NULL"}, "type": "Feature", "geometry": {"type": "Point", "coordinates": [135.00965, 35.06313]}}, {"properties": {"name": "久下村", "uri": "https://uedayou.net/jrslod/西日本旅客鉄道/加古川線/久下村", "railname": "西日本旅客鉄道加古川線", "door": "NULL"}, "type": "Feature", "geometry": {"type": "Point", "coordinates": [135.03031, 35.07548]}}, {"properties": {"name": "谷川", "uri": "https://uedayou.net/jrslod/西日本旅客鉄道/加古川線/谷川", "railname": "西日本旅客鉄道加古川線", "door": "NULL"}, "type": "Feature", "geometry": {"type": "Point", "coordinates": [135.04907, 35.08323]}}]}