{"type": "FeatureCollection", "features": [{"properties": {"name": "王寺", "uri": "https://uedayou.net/jrslod/西日本旅客鉄道/和歌山線/王寺", "railname": "西日本旅客鉄道和歌山線", "door": "NULL"}, "type": "Feature", "geometry": {"type": "Point", "coordinates": [135.7031, 34.59749]}}, {"properties": {"name": "畠田", "uri": "https://uedayou.net/jrslod/西日本旅客鉄道/和歌山線/畠田", "railname": "西日本旅客鉄道和歌山線", "door": "NULL"}, "type": "Feature", "geometry": {"type": "Point", "coordinates": [135.70331, 34.5771]}}, {"properties": {"name": "志都美", "uri": "https://uedayou.net/jrslod/西日本旅客鉄道/和歌山線/志都美", "railname": "西日本旅客鉄道和歌山線", "door": "NULL"}, "type": "Feature", "geometry": {"type": "Point", "coordinates": [135.70196, 34.56136]}}, {"properties": {"name": "香芝", "uri": "https://uedayou.net/jrslod/西日本旅客鉄道/和歌山線/香芝", "railname": "西日本旅客鉄道和歌山線", "door": "NULL"}, "type": "Feature", "geometry": {"type": "Point", "coordinates": [135.70482, 34.54439]}}, {"properties": {"name": "JR五位堂", "uri": "https://uedayou.net/jrslod/西日本旅客鉄道/和歌山線/JR五位堂", "railname": "西日本旅客鉄道和歌山線", "door": "NULL"}, "type": "Feature", "geometry": {"type": "Point", "coordinates": [135.71831, 34.52768]}}, {"properties": {"name": "高田", "uri": "https://uedayou.net/jrslod/西日本旅客鉄道/和歌山線/高田", "railname": "西日本旅客鉄道和歌山線", "door": "NULL"}, "type": "Feature", "geometry": {"type": "Point", "coordinates": [135.74521, 34.51568]}}, {"properties": {"name": "大和新庄", "uri": "https://uedayou.net/jrslod/西日本旅客鉄道/和歌山線/大和新庄", "railname": "西日本旅客鉄道和歌山線", "door": "NULL"}, "type": "Feature", "geometry": {"type": "Point", "coordinates": [135.73566, 34.4882]}}, {"properties": {"name": "御所", "uri": "https://uedayou.net/jrslod/西日本旅客鉄道/和歌山線/御所", "railname": "西日本旅客鉄道和歌山線", "door": "NULL"}, "type": "Feature", "geometry": {"type": "Point", "coordinates": [135.7338, 34.46435]}}, {"properties": {"name": "玉手", "uri": "https://uedayou.net/jrslod/西日本旅客鉄道/和歌山線/玉手", "railname": "西日本旅客鉄道和歌山線", "door": "NULL"}, "type": "Feature", "geometry": {"type": "Point", "coordinates": [135.74916, 34.45837]}}, {"properties": {"name": "掖上", "uri": "https://uedayou.net/jrslod/西日本旅客鉄道/和歌山線/掖上", "railname": "西日本旅客鉄道和歌山線", "door": "NULL"}, "type": "Feature", "geometry": {"type": "Point", "coordinates": [135.76252, 34.45292]}}, {"properties": {"name": "吉野口", "uri": "https://uedayou.net/jrslod/西日本旅客鉄道/和歌山線/吉野口", "railname": "西日本旅客鉄道和歌山線", "door": "NULL"}, "type": "Feature", "geometry": {"type": "Point", "coordinates": [135.75027, 34.42031]}}, {"properties": {"name": "北宇智", "uri": "https://uedayou.net/jrslod/西日本旅客鉄道/和歌山線/北宇智", "railname": "西日本旅客鉄道和歌山線", "door": "NULL"}, "type": "Feature", "geometry": {"type": "Point", "coordinates": [135.714569, 34.381907]}}, {"properties": {"name": "五条", "uri": "https://uedayou.net/jrslod/西日本旅客鉄道/和歌山線/五条", "railname": "西日本旅客鉄道和歌山線", "door": "NULL"}, "type": "Feature", "geometry": {"type": "Point", "coordinates": [135.69971, 34.35624]}}, {"properties": {"name": "大和二見", "uri": "https://uedayou.net/jrslod/西日本旅客鉄道/和歌山線/大和二見", "railname": "西日本旅客鉄道和歌山線", "door": "NULL"}, "type": "Feature", "geometry": {"type": "Point", "coordinates": [135.68479, 34.34634]}}, {"properties": {"name": "隅田", "uri": "https://uedayou.net/jrslod/西日本旅客鉄道/和歌山線/隅田", "railname": "西日本旅客鉄道和歌山線", "door": "NULL"}, "type": "Feature", "geometry": {"type": "Point", "coordinates": [135.65495, 34.32811]}}, {"properties": {"name": "下兵庫", "uri": "https://uedayou.net/jrslod/西日本旅客鉄道/和歌山線/下兵庫", "railname": "西日本旅客鉄道和歌山線", "door": "NULL"}, "type": "Feature", "geometry": {"type": "Point", "coordinates": [135.63541, 34.32276]}}, {"properties": {"name": "橋本", "uri": "https://uedayou.net/jrslod/西日本旅客鉄道/和歌山線/橋本", "railname": "西日本旅客鉄道和歌山線", "door": "NULL"}, "type": "Feature", "geometry": {"type": "Point", "coordinates": [135.61551, 34.31828]}}, {"properties": {"name": "紀伊山田", "uri": "https://uedayou.net/jrslod/西日本旅客鉄道/和歌山線/紀伊山田", "railname": "西日本旅客鉄道和歌山線", "door": "NULL"}, "type": "Feature", "geometry": {"type": "Point", "coordinates": [135.5844, 34.3132]}}, {"properties": {"name": "高野口", "uri": "https://uedayou.net/jrslod/西日本旅客鉄道/和歌山線/高野口", "railname": "西日本旅客鉄道和歌山線", "door": "NULL"}, "type": "Feature", "geometry": {"type": "Point", "coordinates": [135.55646, 34.30768]}}, {"properties": {"name": "中飯降", "uri": "https://uedayou.net/jrslod/西日本旅客鉄道/和歌山線/中飯降", "railname": "西日本旅客鉄道和歌山線", "door": "NULL"}, "type": "Feature", "geometry": {"type": "Point", "coordinates": [135.53208, 34.30429]}}, {"properties": {"name": "妙寺", "uri": "https://uedayou.net/jrslod/西日本旅客鉄道/和歌山線/妙寺", "railname": "西日本旅客鉄道和歌山線", "door": "NULL"}, "type": "Feature", "geometry": {"type": "Point", "coordinates": [135.51779, 34.29852]}}, {"properties": {"name": "大谷", "uri": "https://uedayou.net/jrslod/西日本旅客鉄道/和歌山線/大谷", "railname": "西日本旅客鉄道和歌山線", "door": "NULL"}, "type": "Feature", "geometry": {"type": "Point", "coordinates": [135.49427, 34.29872]}}, {"properties": {"name": "笠田", "uri": "https://uedayou.net/jrslod/西日本旅客鉄道/和歌山線/笠田", "railname": "西日本旅客鉄道和歌山線", "door": "NULL"}, "type": "Feature", "geometry": {"type": "Point", "coordinates": [135.47937, 34.29174]}}, {"properties": {"name": "西笠田", "uri": "https://uedayou.net/jrslod/西日本旅客鉄道/和歌山線/西笠田", "railname": "西日本旅客鉄道和歌山線", "door": "NULL"}, "type": "Feature", "geometry": {"type": "Point", "coordinates": [135.45222, 34.28008]}}, {"properties": {"name": "名手", "uri": "https://uedayou.net/jrslod/西日本旅客鉄道/和歌山線/名手", "railname": "西日本旅客鉄道和歌山線", "door": "NULL"}, "type": "Feature", "geometry": {"type": "Point", "coordinates": [135.43364, 34.27292]}}, {"properties": {"name": "粉河", "uri": "https://uedayou.net/jrslod/西日本旅客鉄道/和歌山線/粉河", "railname": "西日本旅客鉄道和歌山線", "door": "NULL"}, "type": "Feature", "geometry": {"type": "Point", "coordinates": [135.40492, 34.27089]}}, {"properties": {"name": "紀伊長田", "uri": "https://uedayou.net/jrslod/西日本旅客鉄道/和歌山線/紀伊長田", "railname": "西日本旅客鉄道和歌山線", "door": "NULL"}, "type": "Feature", "geometry": {"type": "Point", "coordinates": [135.39146, 34.26827]}}, {"properties": {"name": "打田", "uri": "https://uedayou.net/jrslod/西日本旅客鉄道/和歌山線/打田", "railname": "西日本旅客鉄道和歌山線", "door": "NULL"}, "type": "Feature", "geometry": {"type": "Point", "coordinates": [135.36496, 34.26518]}}, {"properties": {"name": "下井阪", "uri": "https://uedayou.net/jrslod/西日本旅客鉄道/和歌山線/下井阪", "railname": "西日本旅客鉄道和歌山線", "door": "NULL"}, "type": "Feature", "geometry": {"type": "Point", "coordinates": [135.33976, 34.26199]}}, {"properties": {"name": "岩出", "uri": "https://uedayou.net/jrslod/西日本旅客鉄道/和歌山線/岩出", "railname": "西日本旅客鉄道和歌山線", "door": "NULL"}, "type": "Feature", "geometry": {"type": "Point", "coordinates": [135.32142, 34.25539]}}, {"properties": {"name": "船戸", "uri": "https://uedayou.net/jrslod/西日本旅客鉄道/和歌山線/船戸", "railname": "西日本旅客鉄道和歌山線", "door": "NULL"}, "type": "Feature", "geometry": {"type": "Point", "coordinates": [135.31066, 34.24826]}}, {"properties": {"name": "紀伊小倉", "uri": "https://uedayou.net/jrslod/西日本旅客鉄道/和歌山線/紀伊小倉", "railname": "西日本旅客鉄道和歌山線", "door": "NULL"}, "type": "Feature", "geometry": {"type": "Point", "coordinates": [135.28701, 34.24633]}}, {"properties": {"name": "布施屋", "uri": "https://uedayou.net/jrslod/西日本旅客鉄道/和歌山線/布施屋", "railname": "西日本旅客鉄道和歌山線", "door": "NULL"}, "type": "Feature", "geometry": {"type": "Point", "coordinates": [135.26083, 34.24428]}}, {"properties": {"name": "千旦", "uri": "https://uedayou.net/jrslod/西日本旅客鉄道/和歌山線/千旦", "railname": "西日本旅客鉄道和歌山線", "door": "NULL"}, "type": "Feature", "geometry": {"type": "Point", "coordinates": [135.24525, 34.24166]}}, {"properties": {"name": "田井ノ瀬", "uri": "https://uedayou.net/jrslod/西日本旅客鉄道/和歌山線/田井ノ瀬", "railname": "西日本旅客鉄道和歌山線", "door": "NULL"}, "type": "Feature", "geometry": {"type": "Point", "coordinates": [135.22909, 34.24208]}}, {"properties": {"name": "和歌山", "uri": "https://uedayou.net/jrslod/西日本旅客鉄道/和歌山線/和歌山", "railname": "西日本旅客鉄道和歌山線", "door": "NULL"}, "type": "Feature", "geometry": {"type": "Point", "coordinates": [135.19156, 34.23162]}}]}