{"type": "FeatureCollection", "features": [{"properties": {"name": "北山形", "uri": "https://uedayou.net/jrslod/東日本旅客鉄道/左沢線/北山形", "railname": "東日本旅客鉄道左沢線", "door": "NULL"}, "type": "Feature", "geometry": {"type": "Point", "coordinates": [140.33227, 38.26542]}}, {"properties": {"name": "東金井", "uri": "https://uedayou.net/jrslod/東日本旅客鉄道/左沢線/東金井", "railname": "東日本旅客鉄道左沢線", "door": "NULL"}, "type": "Feature", "geometry": {"type": "Point", "coordinates": [140.30317, 38.27674]}}, {"properties": {"name": "羽前山辺", "uri": "https://uedayou.net/jrslod/東日本旅客鉄道/左沢線/羽前山辺", "railname": "東日本旅客鉄道左沢線", "door": "NULL"}, "type": "Feature", "geometry": {"type": "Point", "coordinates": [140.27142, 38.29543]}}, {"properties": {"name": "羽前金沢", "uri": "https://uedayou.net/jrslod/東日本旅客鉄道/左沢線/羽前金沢", "railname": "東日本旅客鉄道左沢線", "door": "NULL"}, "type": "Feature", "geometry": {"type": "Point", "coordinates": [140.27055, 38.3213]}}, {"properties": {"name": "羽前長崎", "uri": "https://uedayou.net/jrslod/東日本旅客鉄道/左沢線/羽前長崎", "railname": "東日本旅客鉄道左沢線", "door": "NULL"}, "type": "Feature", "geometry": {"type": "Point", "coordinates": [140.27293, 38.33229]}}, {"properties": {"name": "南寒河江", "uri": "https://uedayou.net/jrslod/東日本旅客鉄道/左沢線/南寒河江", "railname": "東日本旅客鉄道左沢線", "door": "NULL"}, "type": "Feature", "geometry": {"type": "Point", "coordinates": [140.2774, 38.356]}}, {"properties": {"name": "寒河江", "uri": "https://uedayou.net/jrslod/東日本旅客鉄道/左沢線/寒河江", "railname": "東日本旅客鉄道左沢線", "door": "NULL"}, "type": "Feature", "geometry": {"type": "Point", "coordinates": [140.27471, 38.37205]}}, {"properties": {"name": "西寒河江", "uri": "https://uedayou.net/jrslod/東日本旅客鉄道/左沢線/西寒河江", "railname": "東日本旅客鉄道左沢線", "door": "NULL"}, "type": "Feature", "geometry": {"type": "Point", "coordinates": [140.2666, 38.37957]}}, {"properties": {"name": "羽前高松", "uri": "https://uedayou.net/jrslod/東日本旅客鉄道/左沢線/羽前高松", "railname": "東日本旅客鉄道左沢線", "door": "NULL"}, "type": "Feature", "geometry": {"type": "Point", "coordinates": [140.24843, 38.39747]}}, {"properties": {"name": "柴橋", "uri": "https://uedayou.net/jrslod/東日本旅客鉄道/左沢線/柴橋", "railname": "東日本旅客鉄道左沢線", "door": "NULL"}, "type": "Feature", "geometry": {"type": "Point", "coordinates": [140.22585, 38.38087]}}, {"properties": {"name": "左沢", "uri": "https://uedayou.net/jrslod/東日本旅客鉄道/左沢線/左沢", "railname": "東日本旅客鉄道左沢線", "door": "NULL"}, "type": "Feature", "geometry": {"type": "Point", "coordinates": [140.20807, 38.38218]}}]}