{"type": "FeatureCollection", "features": [{"properties": {"name": "花巻", "uri": "https://uedayou.net/jrslod/東日本旅客鉄道/釜石線/花巻", "railname": "東日本旅客鉄道釜石線", "door": "NULL"}, "type": "Feature", "geometry": {"type": "Point", "coordinates": [141.10998, 39.3952]}}, {"properties": {"name": "似内", "uri": "https://uedayou.net/jrslod/東日本旅客鉄道/釜石線/似内", "railname": "東日本旅客鉄道釜石線", "door": "NULL"}, "type": "Feature", "geometry": {"type": "Point", "coordinates": [141.13997, 39.40678]}}, {"properties": {"name": "新花巻", "uri": "https://uedayou.net/jrslod/東日本旅客鉄道/釜石線/新花巻", "railname": "東日本旅客鉄道釜石線", "door": "NULL"}, "type": "Feature", "geometry": {"type": "Point", "coordinates": [141.17387, 39.40592]}}, {"properties": {"name": "小山田", "uri": "https://uedayou.net/jrslod/東日本旅客鉄道/釜石線/小山田", "railname": "東日本旅客鉄道釜石線", "door": "NULL"}, "type": "Feature", "geometry": {"type": "Point", "coordinates": [141.19345, 39.40885]}}, {"properties": {"name": "土沢", "uri": "https://uedayou.net/jrslod/東日本旅客鉄道/釜石線/土沢", "railname": "東日本旅客鉄道釜石線", "door": "NULL"}, "type": "Feature", "geometry": {"type": "Point", "coordinates": [141.23312, 39.3829]}}, {"properties": {"name": "晴山", "uri": "https://uedayou.net/jrslod/東日本旅客鉄道/釜石線/晴山", "railname": "東日本旅客鉄道釜石線", "door": "NULL"}, "type": "Feature", "geometry": {"type": "Point", "coordinates": [141.25733, 39.36711]}}, {"properties": {"name": "岩根橋", "uri": "https://uedayou.net/jrslod/東日本旅客鉄道/釜石線/岩根橋", "railname": "東日本旅客鉄道釜石線", "door": "NULL"}, "type": "Feature", "geometry": {"type": "Point", "coordinates": [141.319, 39.35523]}}, {"properties": {"name": "宮守", "uri": "https://uedayou.net/jrslod/東日本旅客鉄道/釜石線/宮守", "railname": "東日本旅客鉄道釜石線", "door": "NULL"}, "type": "Feature", "geometry": {"type": "Point", "coordinates": [141.35036, 39.35035]}}, {"properties": {"name": "柏木平", "uri": "https://uedayou.net/jrslod/東日本旅客鉄道/釜石線/柏木平", "railname": "東日本旅客鉄道釜石線", "door": "NULL"}, "type": "Feature", "geometry": {"type": "Point", "coordinates": [141.37987, 39.30641]}}, {"properties": {"name": "鱒沢", "uri": "https://uedayou.net/jrslod/東日本旅客鉄道/釜石線/鱒沢", "railname": "東日本旅客鉄道釜石線", "door": "NULL"}, "type": "Feature", "geometry": {"type": "Point", "coordinates": [141.39986, 39.30023]}}, {"properties": {"name": "荒谷前", "uri": "https://uedayou.net/jrslod/東日本旅客鉄道/釜石線/荒谷前", "railname": "東日本旅客鉄道釜石線", "door": "NULL"}, "type": "Feature", "geometry": {"type": "Point", "coordinates": [141.42887, 39.30994]}}, {"properties": {"name": "岩手二日町", "uri": "https://uedayou.net/jrslod/東日本旅客鉄道/釜石線/岩手二日町", "railname": "東日本旅客鉄道釜石線", "door": "NULL"}, "type": "Feature", "geometry": {"type": "Point", "coordinates": [141.4565, 39.32361]}}, {"properties": {"name": "綾織", "uri": "https://uedayou.net/jrslod/東日本旅客鉄道/釜石線/綾織", "railname": "東日本旅客鉄道釜石線", "door": "NULL"}, "type": "Feature", "geometry": {"type": "Point", "coordinates": [141.47725, 39.32845]}}, {"properties": {"name": "遠野", "uri": "https://uedayou.net/jrslod/東日本旅客鉄道/釜石線/遠野", "railname": "東日本旅客鉄道釜石線", "door": "NULL"}, "type": "Feature", "geometry": {"type": "Point", "coordinates": [141.53002, 39.33273]}}, {"properties": {"name": "青笹", "uri": "https://uedayou.net/jrslod/東日本旅客鉄道/釜石線/青笹", "railname": "東日本旅客鉄道釜石線", "door": "NULL"}, "type": "Feature", "geometry": {"type": "Point", "coordinates": [141.56917, 39.3112]}}, {"properties": {"name": "岩手上郷", "uri": "https://uedayou.net/jrslod/東日本旅客鉄道/釜石線/岩手上郷", "railname": "東日本旅客鉄道釜石線", "door": "NULL"}, "type": "Feature", "geometry": {"type": "Point", "coordinates": [141.5863, 39.28412]}}, {"properties": {"name": "平倉", "uri": "https://uedayou.net/jrslod/東日本旅客鉄道/釜石線/平倉", "railname": "東日本旅客鉄道釜石線", "door": "NULL"}, "type": "Feature", "geometry": {"type": "Point", "coordinates": [141.59609, 39.26463]}}, {"properties": {"name": "足ヶ瀬", "uri": "https://uedayou.net/jrslod/東日本旅客鉄道/釜石線/足ヶ瀬", "railname": "東日本旅客鉄道釜石線", "door": "NULL"}, "type": "Feature", "geometry": {"type": "Point", "coordinates": [141.64545, 39.25471]}}, {"properties": {"name": "上有住", "uri": "https://uedayou.net/jrslod/東日本旅客鉄道/釜石線/上有住", "railname": "東日本旅客鉄道釜石線", "door": "NULL"}, "type": "Feature", "geometry": {"type": "Point", "coordinates": [141.68192, 39.24217]}}, {"properties": {"name": "陸中大橋", "uri": "https://uedayou.net/jrslod/東日本旅客鉄道/釜石線/陸中大橋", "railname": "東日本旅客鉄道釜石線", "door": "NULL"}, "type": "Feature", "geometry": {"type": "Point", "coordinates": [141.71871, 39.28013]}}, {"properties": {"name": "洞泉", "uri": "https://uedayou.net/jrslod/東日本旅客鉄道/釜石線/洞泉", "railname": "東日本旅客鉄道釜石線", "door": "NULL"}, "type": "Feature", "geometry": {"type": "Point", "coordinates": [141.75976, 39.25046]}}, {"properties": {"name": "松倉", "uri": "https://uedayou.net/jrslod/東日本旅客鉄道/釜石線/松倉", "railname": "東日本旅客鉄道釜石線", "door": "NULL"}, "type": "Feature", "geometry": {"type": "Point", "coordinates": [141.80194, 39.25647]}}, {"properties": {"name": "小佐野", "uri": "https://uedayou.net/jrslod/東日本旅客鉄道/釜石線/小佐野", "railname": "東日本旅客鉄道釜石線", "door": "NULL"}, "type": "Feature", "geometry": {"type": "Point", "coordinates": [141.83687, 39.26476]}}, {"properties": {"name": "釜石", "uri": "https://uedayou.net/jrslod/東日本旅客鉄道/釜石線/釜石", "railname": "東日本旅客鉄道釜石線", "door": "NULL"}, "type": "Feature", "geometry": {"type": "Point", "coordinates": [141.87225, 39.27356]}}]}