{"type": "FeatureCollection", "features": [{"properties": {"name": "木更津", "uri": "https://uedayou.net/jrslod/東日本旅客鉄道/久留里線/木更津", "railname": "東日本旅客鉄道久留里線", "door": "NULL"}, "type": "Feature", "geometry": {"type": "Point", "coordinates": [139.92614, 35.3817]}}, {"properties": {"name": "祇園", "uri": "https://uedayou.net/jrslod/東日本旅客鉄道/久留里線/祇園", "railname": "東日本旅客鉄道久留里線", "door": "NULL"}, "type": "Feature", "geometry": {"type": "Point", "coordinates": [139.94875, 35.3917]}}, {"properties": {"name": "上総清川", "uri": "https://uedayou.net/jrslod/東日本旅客鉄道/久留里線/上総清川", "railname": "東日本旅客鉄道久留里線", "door": "NULL"}, "type": "Feature", "geometry": {"type": "Point", "coordinates": [139.96565, 35.39083]}}, {"properties": {"name": "東清川", "uri": "https://uedayou.net/jrslod/東日本旅客鉄道/久留里線/東清川", "railname": "東日本旅客鉄道久留里線", "door": "NULL"}, "type": "Feature", "geometry": {"type": "Point", "coordinates": [139.98566, 35.38999]}}, {"properties": {"name": "横田", "uri": "https://uedayou.net/jrslod/東日本旅客鉄道/久留里線/横田", "railname": "東日本旅客鉄道久留里線", "door": "NULL"}, "type": "Feature", "geometry": {"type": "Point", "coordinates": [140.02067, 35.38621]}}, {"properties": {"name": "東横田", "uri": "https://uedayou.net/jrslod/東日本旅客鉄道/久留里線/東横田", "railname": "東日本旅客鉄道久留里線", "door": "NULL"}, "type": "Feature", "geometry": {"type": "Point", "coordinates": [140.0364, 35.38615]}}, {"properties": {"name": "馬来田", "uri": "https://uedayou.net/jrslod/東日本旅客鉄道/久留里線/馬来田", "railname": "東日本旅客鉄道久留里線", "door": "NULL"}, "type": "Feature", "geometry": {"type": "Point", "coordinates": [140.05858, 35.36715]}}, {"properties": {"name": "下郡", "uri": "https://uedayou.net/jrslod/東日本旅客鉄道/久留里線/下郡", "railname": "東日本旅客鉄道久留里線", "door": "NULL"}, "type": "Feature", "geometry": {"type": "Point", "coordinates": [140.0554, 35.35463]}}, {"properties": {"name": "小櫃", "uri": "https://uedayou.net/jrslod/東日本旅客鉄道/久留里線/小櫃", "railname": "東日本旅客鉄道久留里線", "door": "NULL"}, "type": "Feature", "geometry": {"type": "Point", "coordinates": [140.05971, 35.32858]}}, {"properties": {"name": "俵田", "uri": "https://uedayou.net/jrslod/東日本旅客鉄道/久留里線/俵田", "railname": "東日本旅客鉄道久留里線", "door": "NULL"}, "type": "Feature", "geometry": {"type": "Point", "coordinates": [140.06175, 35.31438]}}, {"properties": {"name": "久留里", "uri": "https://uedayou.net/jrslod/東日本旅客鉄道/久留里線/久留里", "railname": "東日本旅客鉄道久留里線", "door": "NULL"}, "type": "Feature", "geometry": {"type": "Point", "coordinates": [140.07574, 35.29523]}}, {"properties": {"name": "平山", "uri": "https://uedayou.net/jrslod/東日本旅客鉄道/久留里線/平山", "railname": "東日本旅客鉄道久留里線", "door": "NULL"}, "type": "Feature", "geometry": {"type": "Point", "coordinates": [140.06492, 35.27457]}}, {"properties": {"name": "上総松丘", "uri": "https://uedayou.net/jrslod/東日本旅客鉄道/久留里線/上総松丘", "railname": "東日本旅客鉄道久留里線", "door": "NULL"}, "type": "Feature", "geometry": {"type": "Point", "coordinates": [140.064, 35.25853]}}, {"properties": {"name": "上総亀山", "uri": "https://uedayou.net/jrslod/東日本旅客鉄道/久留里線/上総亀山", "railname": "東日本旅客鉄道久留里線", "door": "NULL"}, "type": "Feature", "geometry": {"type": "Point", "coordinates": [140.08917, 35.2334]}}]}