{"type": "FeatureCollection", "features": [{"properties": {"name": "松本", "uri": "https://uedayou.net/jrslod/東日本旅客鉄道/大糸線/松本", "railname": "東日本旅客鉄道大糸線", "door": "NULL"}, "type": "Feature", "geometry": {"type": "Point", "coordinates": [137.9652, 36.22914]}}, {"properties": {"name": "北松本", "uri": "https://uedayou.net/jrslod/東日本旅客鉄道/大糸線/北松本", "railname": "東日本旅客鉄道大糸線", "door": "NULL"}, "type": "Feature", "geometry": {"type": "Point", "coordinates": [137.96113, 36.23687]}}, {"properties": {"name": "島内", "uri": "https://uedayou.net/jrslod/東日本旅客鉄道/大糸線/島内", "railname": "東日本旅客鉄道大糸線", "door": "NULL"}, "type": "Feature", "geometry": {"type": "Point", "coordinates": [137.94476, 36.24691]}}, {"properties": {"name": "島高松", "uri": "https://uedayou.net/jrslod/東日本旅客鉄道/大糸線/島高松", "railname": "東日本旅客鉄道大糸線", "door": "NULL"}, "type": "Feature", "geometry": {"type": "Point", "coordinates": [137.93162, 36.24633]}}, {"properties": {"name": "梓橋", "uri": "https://uedayou.net/jrslod/東日本旅客鉄道/大糸線/梓橋", "railname": "東日本旅客鉄道大糸線", "door": "NULL"}, "type": "Feature", "geometry": {"type": "Point", "coordinates": [137.91808, 36.25018]}}, {"properties": {"name": "一日市場", "uri": "https://uedayou.net/jrslod/東日本旅客鉄道/大糸線/一日市場", "railname": "東日本旅客鉄道大糸線", "door": "NULL"}, "type": "Feature", "geometry": {"type": "Point", "coordinates": [137.90351, 36.26064]}}, {"properties": {"name": "中萱", "uri": "https://uedayou.net/jrslod/東日本旅客鉄道/大糸線/中萱", "railname": "東日本旅客鉄道大糸線", "door": "NULL"}, "type": "Feature", "geometry": {"type": "Point", "coordinates": [137.90329, 36.27331]}}, {"properties": {"name": "南豊科", "uri": "https://uedayou.net/jrslod/東日本旅客鉄道/大糸線/南豊科", "railname": "東日本旅客鉄道大糸線", "door": "NULL"}, "type": "Feature", "geometry": {"type": "Point", "coordinates": [137.90349, 36.29099]}}, {"properties": {"name": "豊科", "uri": "https://uedayou.net/jrslod/東日本旅客鉄道/大糸線/豊科", "railname": "東日本旅客鉄道大糸線", "door": "NULL"}, "type": "Feature", "geometry": {"type": "Point", "coordinates": [137.90056, 36.3006]}}, {"properties": {"name": "柏矢町", "uri": "https://uedayou.net/jrslod/東日本旅客鉄道/大糸線/柏矢町", "railname": "東日本旅客鉄道大糸線", "door": "NULL"}, "type": "Feature", "geometry": {"type": "Point", "coordinates": [137.88853, 36.32189]}}, {"properties": {"name": "穂高", "uri": "https://uedayou.net/jrslod/東日本旅客鉄道/大糸線/穂高", "railname": "東日本旅客鉄道大糸線", "door": "NULL"}, "type": "Feature", "geometry": {"type": "Point", "coordinates": [137.88188, 36.33904]}}, {"properties": {"name": "有明", "uri": "https://uedayou.net/jrslod/東日本旅客鉄道/大糸線/有明", "railname": "東日本旅客鉄道大糸線", "door": "NULL"}, "type": "Feature", "geometry": {"type": "Point", "coordinates": [137.87825, 36.36001]}}, {"properties": {"name": "安曇追分", "uri": "https://uedayou.net/jrslod/東日本旅客鉄道/大糸線/安曇追分", "railname": "東日本旅客鉄道大糸線", "door": "NULL"}, "type": "Feature", "geometry": {"type": "Point", "coordinates": [137.87308, 36.37131]}}, {"properties": {"name": "細野", "uri": "https://uedayou.net/jrslod/東日本旅客鉄道/大糸線/細野", "railname": "東日本旅客鉄道大糸線", "door": "NULL"}, "type": "Feature", "geometry": {"type": "Point", "coordinates": [137.8658, 36.39676]}}, {"properties": {"name": "北細野", "uri": "https://uedayou.net/jrslod/東日本旅客鉄道/大糸線/北細野", "railname": "東日本旅客鉄道大糸線", "door": "NULL"}, "type": "Feature", "geometry": {"type": "Point", "coordinates": [137.86259, 36.40669]}}, {"properties": {"name": "信濃松川", "uri": "https://uedayou.net/jrslod/東日本旅客鉄道/大糸線/信濃松川", "railname": "東日本旅客鉄道大糸線", "door": "NULL"}, "type": "Feature", "geometry": {"type": "Point", "coordinates": [137.85852, 36.42538]}}, {"properties": {"name": "安曇沓掛", "uri": "https://uedayou.net/jrslod/東日本旅客鉄道/大糸線/安曇沓掛", "railname": "東日本旅客鉄道大糸線", "door": "NULL"}, "type": "Feature", "geometry": {"type": "Point", "coordinates": [137.85455, 36.4481]}}, {"properties": {"name": "信濃常盤", "uri": "https://uedayou.net/jrslod/東日本旅客鉄道/大糸線/信濃常盤", "railname": "東日本旅客鉄道大糸線", "door": "NULL"}, "type": "Feature", "geometry": {"type": "Point", "coordinates": [137.84704, 36.46796]}}, {"properties": {"name": "南大町", "uri": "https://uedayou.net/jrslod/東日本旅客鉄道/大糸線/南大町", "railname": "東日本旅客鉄道大糸線", "door": "NULL"}, "type": "Feature", "geometry": {"type": "Point", "coordinates": [137.85588, 36.49105]}}, {"properties": {"name": "信濃大町", "uri": "https://uedayou.net/jrslod/東日本旅客鉄道/大糸線/信濃大町", "railname": "東日本旅客鉄道大糸線", "door": "NULL"}, "type": "Feature", "geometry": {"type": "Point", "coordinates": [137.86183, 36.50048]}}, {"properties": {"name": "北大町", "uri": "https://uedayou.net/jrslod/東日本旅客鉄道/大糸線/北大町", "railname": "東日本旅客鉄道大糸線", "door": "NULL"}, "type": "Feature", "geometry": {"type": "Point", "coordinates": [137.85824, 36.51734]}}, {"properties": {"name": "信濃木崎", "uri": "https://uedayou.net/jrslod/東日本旅客鉄道/大糸線/信濃木崎", "railname": "東日本旅客鉄道大糸線", "door": "NULL"}, "type": "Feature", "geometry": {"type": "Point", "coordinates": [137.84594, 36.53617]}}, {"properties": {"name": "稲尾", "uri": "https://uedayou.net/jrslod/東日本旅客鉄道/大糸線/稲尾", "railname": "東日本旅客鉄道大糸線", "door": "NULL"}, "type": "Feature", "geometry": {"type": "Point", "coordinates": [137.84262, 36.55444]}}, {"properties": {"name": "海ノ口", "uri": "https://uedayou.net/jrslod/東日本旅客鉄道/大糸線/海ノ口", "railname": "東日本旅客鉄道大糸線", "door": "NULL"}, "type": "Feature", "geometry": {"type": "Point", "coordinates": [137.84205, 36.56542]}}, {"properties": {"name": "簗場", "uri": "https://uedayou.net/jrslod/東日本旅客鉄道/大糸線/簗場", "railname": "東日本旅客鉄道大糸線", "door": "NULL"}, "type": "Feature", "geometry": {"type": "Point", "coordinates": [137.84494, 36.59511]}}, {"properties": {"name": "ヤナバスキー場前", "uri": "https://uedayou.net/jrslod/東日本旅客鉄道/大糸線/ヤナバスキー場前", "railname": "東日本旅客鉄道大糸線", "door": "NULL"}, "type": "Feature", "geometry": {"type": "Point", "coordinates": [137.85499, 36.60583]}}, {"properties": {"name": "南神城", "uri": "https://uedayou.net/jrslod/東日本旅客鉄道/大糸線/南神城", "railname": "東日本旅客鉄道大糸線", "door": "NULL"}, "type": "Feature", "geometry": {"type": "Point", "coordinates": [137.84163, 36.63718]}}, {"properties": {"name": "神城", "uri": "https://uedayou.net/jrslod/東日本旅客鉄道/大糸線/神城", "railname": "東日本旅客鉄道大糸線", "door": "NULL"}, "type": "Feature", "geometry": {"type": "Point", "coordinates": [137.8466, 36.65814]}}, {"properties": {"name": "飯森", "uri": "https://uedayou.net/jrslod/東日本旅客鉄道/大糸線/飯森", "railname": "東日本旅客鉄道大糸線", "door": "NULL"}, "type": "Feature", "geometry": {"type": "Point", "coordinates": [137.85036, 36.6709]}}, {"properties": {"name": "白馬", "uri": "https://uedayou.net/jrslod/東日本旅客鉄道/大糸線/白馬", "railname": "東日本旅客鉄道大糸線", "door": "NULL"}, "type": "Feature", "geometry": {"type": "Point", "coordinates": [137.8643, 36.69674]}}, {"properties": {"name": "信濃森上", "uri": "https://uedayou.net/jrslod/東日本旅客鉄道/大糸線/信濃森上", "railname": "東日本旅客鉄道大糸線", "door": "NULL"}, "type": "Feature", "geometry": {"type": "Point", "coordinates": [137.87191, 36.71104]}}, {"properties": {"name": "白馬大池", "uri": "https://uedayou.net/jrslod/東日本旅客鉄道/大糸線/白馬大池", "railname": "東日本旅客鉄道大糸線", "door": "NULL"}, "type": "Feature", "geometry": {"type": "Point", "coordinates": [137.88564, 36.7392]}}, {"properties": {"name": "千国", "uri": "https://uedayou.net/jrslod/東日本旅客鉄道/大糸線/千国", "railname": "東日本旅客鉄道大糸線", "door": "NULL"}, "type": "Feature", "geometry": {"type": "Point", "coordinates": [137.90075, 36.76291]}}, {"properties": {"name": "南小谷", "uri": "https://uedayou.net/jrslod/東日本旅客鉄道/大糸線/南小谷", "railname": "東日本旅客鉄道大糸線", "door": "NULL"}, "type": "Feature", "geometry": {"type": "Point", "coordinates": [137.90845, 36.7747]}}]}