{"type": "FeatureCollection", "features": [{"properties": {"name": "大宮", "uri": "https://uedayou.net/jrslod/東日本旅客鉄道/川越線/大宮", "railname": "東日本旅客鉄道川越線", "door": "NULL"}, "type": "Feature", "geometry": {"type": "Point", "coordinates": [139.62313, 35.906]}}, {"properties": {"name": "日進", "uri": "https://uedayou.net/jrslod/東日本旅客鉄道/川越線/日進", "railname": "東日本旅客鉄道川越線", "door": "NULL"}, "type": "Feature", "geometry": {"type": "Point", "coordinates": [139.6068, 35.93178]}}, {"properties": {"name": "西大宮", "uri": "https://uedayou.net/jrslod/東日本旅客鉄道/川越線/西大宮", "railname": "東日本旅客鉄道川越線", "door": "NULL"}, "type": "Feature", "geometry": {"type": "Point", "coordinates": [139.5791, 35.92203]}}, {"properties": {"name": "指扇", "uri": "https://uedayou.net/jrslod/東日本旅客鉄道/川越線/指扇", "railname": "東日本旅客鉄道川越線", "door": "NULL"}, "type": "Feature", "geometry": {"type": "Point", "coordinates": [139.56559, 35.91719]}}, {"properties": {"name": "南古谷", "uri": "https://uedayou.net/jrslod/東日本旅客鉄道/川越線/南古谷", "railname": "東日本旅客鉄道川越線", "door": "NULL"}, "type": "Feature", "geometry": {"type": "Point", "coordinates": [139.52007, 35.90327]}}, {"properties": {"name": "川越", "uri": "https://uedayou.net/jrslod/東日本旅客鉄道/川越線/川越", "railname": "東日本旅客鉄道川越線", "door": "NULL"}, "type": "Feature", "geometry": {"type": "Point", "coordinates": [139.48301, 35.90688]}}, {"properties": {"name": "西川越", "uri": "https://uedayou.net/jrslod/東日本旅客鉄道/川越線/西川越", "railname": "東日本旅客鉄道川越線", "door": "NULL"}, "type": "Feature", "geometry": {"type": "Point", "coordinates": [139.45925, 35.91921]}}, {"properties": {"name": "的場", "uri": "https://uedayou.net/jrslod/東日本旅客鉄道/川越線/的場", "railname": "東日本旅客鉄道川越線", "door": "NULL"}, "type": "Feature", "geometry": {"type": "Point", "coordinates": [139.43603, 35.91776]}}, {"properties": {"name": "笠幡", "uri": "https://uedayou.net/jrslod/東日本旅客鉄道/川越線/笠幡", "railname": "東日本旅客鉄道川越線", "door": "NULL"}, "type": "Feature", "geometry": {"type": "Point", "coordinates": [139.40566, 35.90739]}}, {"properties": {"name": "武蔵高萩", "uri": "https://uedayou.net/jrslod/東日本旅客鉄道/川越線/武蔵高萩", "railname": "東日本旅客鉄道川越線", "door": "NULL"}, "type": "Feature", "geometry": {"type": "Point", "coordinates": [139.37127, 35.9017]}}, {"properties": {"name": "高麗川", "uri": "https://uedayou.net/jrslod/東日本旅客鉄道/川越線/高麗川", "railname": "東日本旅客鉄道川越線", "door": "NULL"}, "type": "Feature", "geometry": {"type": "Point", "coordinates": [139.33784, 35.89688]}}]}