{"type": "FeatureCollection", "features": [{"properties": {"name": "宝積寺", "uri": "https://uedayou.net/jrslod/東日本旅客鉄道/烏山線/宝積寺", "railname": "東日本旅客鉄道烏山線", "door": "NULL"}, "type": "Feature", "geometry": {"type": "Point", "coordinates": [139.97935, 36.63247]}}, {"properties": {"name": "下野花岡", "uri": "https://uedayou.net/jrslod/東日本旅客鉄道/烏山線/下野花岡", "railname": "東日本旅客鉄道烏山線", "door": "NULL"}, "type": "Feature", "geometry": {"type": "Point", "coordinates": [140.00831, 36.64982]}}, {"properties": {"name": "仁井田", "uri": "https://uedayou.net/jrslod/東日本旅客鉄道/烏山線/仁井田", "railname": "東日本旅客鉄道烏山線", "door": "NULL"}, "type": "Feature", "geometry": {"type": "Point", "coordinates": [140.03007, 36.65731]}}, {"properties": {"name": "鴻野山", "uri": "https://uedayou.net/jrslod/東日本旅客鉄道/烏山線/鴻野山", "railname": "東日本旅客鉄道烏山線", "door": "NULL"}, "type": "Feature", "geometry": {"type": "Point", "coordinates": [140.05128, 36.66635]}}, {"properties": {"name": "大金", "uri": "https://uedayou.net/jrslod/東日本旅客鉄道/烏山線/大金", "railname": "東日本旅客鉄道烏山線", "door": "NULL"}, "type": "Feature", "geometry": {"type": "Point", "coordinates": [140.09598, 36.65603]}}, {"properties": {"name": "小塙", "uri": "https://uedayou.net/jrslod/東日本旅客鉄道/烏山線/小塙", "railname": "東日本旅客鉄道烏山線", "door": "NULL"}, "type": "Feature", "geometry": {"type": "Point", "coordinates": [140.11697, 36.64283]}}, {"properties": {"name": "滝", "uri": "https://uedayou.net/jrslod/東日本旅客鉄道/烏山線/滝", "railname": "東日本旅客鉄道烏山線", "door": "NULL"}, "type": "Feature", "geometry": {"type": "Point", "coordinates": [140.13789, 36.64878]}}, {"properties": {"name": "烏山", "uri": "https://uedayou.net/jrslod/東日本旅客鉄道/烏山線/烏山", "railname": "東日本旅客鉄道烏山線", "door": "NULL"}, "type": "Feature", "geometry": {"type": "Point", "coordinates": [140.15541, 36.651]}}]}