{"type": "FeatureCollection", "features": [{"properties": {"name": "会津若松", "uri": "https://uedayou.net/jrslod/東日本旅客鉄道/只見線/会津若松", "railname": "東日本旅客鉄道只見線", "door": "NULL"}, "type": "Feature", "geometry": {"type": "Point", "coordinates": [139.93035, 37.50984]}}, {"properties": {"name": "七日町", "uri": "https://uedayou.net/jrslod/東日本旅客鉄道/只見線/七日町", "railname": "東日本旅客鉄道只見線", "door": "NULL"}, "type": "Feature", "geometry": {"type": "Point", "coordinates": [139.91961, 37.50195]}}, {"properties": {"name": "西若松", "uri": "https://uedayou.net/jrslod/東日本旅客鉄道/只見線/西若松", "railname": "東日本旅客鉄道只見線", "door": "NULL"}, "type": "Feature", "geometry": {"type": "Point", "coordinates": [139.91408, 37.48578]}}, {"properties": {"name": "会津本郷", "uri": "https://uedayou.net/jrslod/東日本旅客鉄道/只見線/会津本郷", "railname": "東日本旅客鉄道只見線", "door": "NULL"}, "type": "Feature", "geometry": {"type": "Point", "coordinates": [139.89301, 37.46356]}}, {"properties": {"name": "会津高田", "uri": "https://uedayou.net/jrslod/東日本旅客鉄道/只見線/会津高田", "railname": "東日本旅客鉄道只見線", "door": "NULL"}, "type": "Feature", "geometry": {"type": "Point", "coordinates": [139.84067, 37.47096]}}, {"properties": {"name": "根岸", "uri": "https://uedayou.net/jrslod/東日本旅客鉄道/只見線/根岸", "railname": "東日本旅客鉄道只見線", "door": "NULL"}, "type": "Feature", "geometry": {"type": "Point", "coordinates": [139.8286, 37.50166]}}, {"properties": {"name": "新鶴", "uri": "https://uedayou.net/jrslod/東日本旅客鉄道/只見線/新鶴", "railname": "東日本旅客鉄道只見線", "door": "NULL"}, "type": "Feature", "geometry": {"type": "Point", "coordinates": [139.82849, 37.51674]}}, {"properties": {"name": "若宮", "uri": "https://uedayou.net/jrslod/東日本旅客鉄道/只見線/若宮", "railname": "東日本旅客鉄道只見線", "door": "NULL"}, "type": "Feature", "geometry": {"type": "Point", "coordinates": [139.8283, 37.53565]}}, {"properties": {"name": "会津坂下", "uri": "https://uedayou.net/jrslod/東日本旅客鉄道/只見線/会津坂下", "railname": "東日本旅客鉄道只見線", "door": "NULL"}, "type": "Feature", "geometry": {"type": "Point", "coordinates": [139.82092, 37.55689]}}, {"properties": {"name": "塔寺", "uri": "https://uedayou.net/jrslod/東日本旅客鉄道/只見線/塔寺", "railname": "東日本旅客鉄道只見線", "door": "NULL"}, "type": "Feature", "geometry": {"type": "Point", "coordinates": [139.78489, 37.56912]}}, {"properties": {"name": "会津坂本", "uri": "https://uedayou.net/jrslod/東日本旅客鉄道/只見線/会津坂本", "railname": "東日本旅客鉄道只見線", "door": "NULL"}, "type": "Feature", "geometry": {"type": "Point", "coordinates": [139.75666, 37.55331]}}, {"properties": {"name": "会津柳津", "uri": "https://uedayou.net/jrslod/東日本旅客鉄道/只見線/会津柳津", "railname": "東日本旅客鉄道只見線", "door": "NULL"}, "type": "Feature", "geometry": {"type": "Point", "coordinates": [139.72384, 37.53821]}}, {"properties": {"name": "郷戸", "uri": "https://uedayou.net/jrslod/東日本旅客鉄道/只見線/郷戸", "railname": "東日本旅客鉄道只見線", "door": "NULL"}, "type": "Feature", "geometry": {"type": "Point", "coordinates": [139.70968, 37.51606]}}, {"properties": {"name": "滝谷", "uri": "https://uedayou.net/jrslod/東日本旅客鉄道/只見線/滝谷", "railname": "東日本旅客鉄道只見線", "door": "NULL"}, "type": "Feature", "geometry": {"type": "Point", "coordinates": [139.69819, 37.49455]}}, {"properties": {"name": "会津桧原", "uri": "https://uedayou.net/jrslod/東日本旅客鉄道/只見線/会津桧原", "railname": "東日本旅客鉄道只見線", "door": "NULL"}, "type": "Feature", "geometry": {"type": "Point", "coordinates": [139.67983, 37.492]}}, {"properties": {"name": "会津西方", "uri": "https://uedayou.net/jrslod/東日本旅客鉄道/只見線/会津西方", "railname": "東日本旅客鉄道只見線", "door": "NULL"}, "type": "Feature", "geometry": {"type": "Point", "coordinates": [139.66113, 37.48088]}}, {"properties": {"name": "会津宮下", "uri": "https://uedayou.net/jrslod/東日本旅客鉄道/只見線/会津宮下", "railname": "東日本旅客鉄道只見線", "door": "NULL"}, "type": "Feature", "geometry": {"type": "Point", "coordinates": [139.64745, 37.47136]}}, {"properties": {"name": "早戸", "uri": "https://uedayou.net/jrslod/東日本旅客鉄道/只見線/早戸", "railname": "東日本旅客鉄道只見線", "door": "NULL"}, "type": "Feature", "geometry": {"type": "Point", "coordinates": [139.59349, 37.47021]}}, {"properties": {"name": "会津水沼", "uri": "https://uedayou.net/jrslod/東日本旅客鉄道/只見線/会津水沼", "railname": "東日本旅客鉄道只見線", "door": "NULL"}, "type": "Feature", "geometry": {"type": "Point", "coordinates": [139.56031, 37.48292]}}, {"properties": {"name": "会津中川", "uri": "https://uedayou.net/jrslod/東日本旅客鉄道/只見線/会津中川", "railname": "東日本旅客鉄道只見線", "door": "NULL"}, "type": "Feature", "geometry": {"type": "Point", "coordinates": [139.53226, 37.47395]}}, {"properties": {"name": "会津川口", "uri": "https://uedayou.net/jrslod/東日本旅客鉄道/只見線/会津川口", "railname": "東日本旅客鉄道只見線", "door": "NULL"}, "type": "Feature", "geometry": {"type": "Point", "coordinates": [139.52348, 37.45503]}}, {"properties": {"name": "本名", "uri": "https://uedayou.net/jrslod/東日本旅客鉄道/只見線/本名", "railname": "東日本旅客鉄道只見線", "door": "NULL"}, "type": "Feature", "geometry": {"type": "Point", "coordinates": [139.49915, 37.44497]}}, {"properties": {"name": "会津越川", "uri": "https://uedayou.net/jrslod/東日本旅客鉄道/只見線/会津越川", "railname": "東日本旅客鉄道只見線", "door": "NULL"}, "type": "Feature", "geometry": {"type": "Point", "coordinates": [139.46904, 37.39858]}}, {"properties": {"name": "会津横田", "uri": "https://uedayou.net/jrslod/東日本旅客鉄道/只見線/会津横田", "railname": "東日本旅客鉄道只見線", "door": "NULL"}, "type": "Feature", "geometry": {"type": "Point", "coordinates": [139.43624, 37.39255]}}, {"properties": {"name": "会津大塩", "uri": "https://uedayou.net/jrslod/東日本旅客鉄道/只見線/会津大塩", "railname": "東日本旅客鉄道只見線", "door": "NULL"}, "type": "Feature", "geometry": {"type": "Point", "coordinates": [139.41321, 37.39278]}}, {"properties": {"name": "会津塩沢", "uri": "https://uedayou.net/jrslod/東日本旅客鉄道/只見線/会津塩沢", "railname": "東日本旅客鉄道只見線", "door": "NULL"}, "type": "Feature", "geometry": {"type": "Point", "coordinates": [139.35483, 37.39336]}}, {"properties": {"name": "会津蒲生", "uri": "https://uedayou.net/jrslod/東日本旅客鉄道/只見線/会津蒲生", "railname": "東日本旅客鉄道只見線", "door": "NULL"}, "type": "Feature", "geometry": {"type": "Point", "coordinates": [139.33294, 37.38175]}}, {"properties": {"name": "只見", "uri": "https://uedayou.net/jrslod/東日本旅客鉄道/只見線/只見", "railname": "東日本旅客鉄道只見線", "door": "NULL"}, "type": "Feature", "geometry": {"type": "Point", "coordinates": [139.315, 37.35055]}}, {"properties": {"name": "大白川", "uri": "https://uedayou.net/jrslod/東日本旅客鉄道/只見線/大白川", "railname": "東日本旅客鉄道只見線", "door": "NULL"}, "type": "Feature", "geometry": {"type": "Point", "coordinates": [139.12049, 37.34164]}}, {"properties": {"name": "入広瀬", "uri": "https://uedayou.net/jrslod/東日本旅客鉄道/只見線/入広瀬", "railname": "東日本旅客鉄道只見線", "door": "NULL"}, "type": "Feature", "geometry": {"type": "Point", "coordinates": [139.06599, 37.3584]}}, {"properties": {"name": "上条", "uri": "https://uedayou.net/jrslod/東日本旅客鉄道/只見線/上条", "railname": "東日本旅客鉄道只見線", "door": "NULL"}, "type": "Feature", "geometry": {"type": "Point", "coordinates": [139.0506, 37.34647]}}, {"properties": {"name": "越後須原", "uri": "https://uedayou.net/jrslod/東日本旅客鉄道/只見線/越後須原", "railname": "東日本旅客鉄道只見線", "door": "NULL"}, "type": "Feature", "geometry": {"type": "Point", "coordinates": [139.01745, 37.32031]}}, {"properties": {"name": "魚沼田中", "uri": "https://uedayou.net/jrslod/東日本旅客鉄道/只見線/魚沼田中", "railname": "東日本旅客鉄道只見線", "door": "NULL"}, "type": "Feature", "geometry": {"type": "Point", "coordinates": [138.99277, 37.29445]}}, {"properties": {"name": "越後広瀬", "uri": "https://uedayou.net/jrslod/東日本旅客鉄道/只見線/越後広瀬", "railname": "東日本旅客鉄道只見線", "door": "NULL"}, "type": "Feature", "geometry": {"type": "Point", "coordinates": [138.98149, 37.27488]}}, {"properties": {"name": "藪神", "uri": "https://uedayou.net/jrslod/東日本旅客鉄道/只見線/藪神", "railname": "東日本旅客鉄道只見線", "door": "NULL"}, "type": "Feature", "geometry": {"type": "Point", "coordinates": [138.97612, 37.25711]}}, {"properties": {"name": "小出", "uri": "https://uedayou.net/jrslod/東日本旅客鉄道/只見線/小出", "railname": "東日本旅客鉄道只見線", "door": "NULL"}, "type": "Feature", "geometry": {"type": "Point", "coordinates": [138.95262, 37.23467]}}]}