{"type": "FeatureCollection", "features": [{"properties": {"name": "一ノ関", "uri": "https://uedayou.net/jrslod/東日本旅客鉄道/大船渡線/一ノ関", "railname": "東日本旅客鉄道大船渡線", "door": "NULL"}, "type": "Feature", "geometry": {"type": "Point", "coordinates": [141.1376, 38.92538]}}, {"properties": {"name": "真滝", "uri": "https://uedayou.net/jrslod/東日本旅客鉄道/大船渡線/真滝", "railname": "東日本旅客鉄道大船渡線", "door": "NULL"}, "type": "Feature", "geometry": {"type": "Point", "coordinates": [141.17799, 38.90796]}}, {"properties": {"name": "陸中門崎", "uri": "https://uedayou.net/jrslod/東日本旅客鉄道/大船渡線/陸中門崎", "railname": "東日本旅客鉄道大船渡線", "door": "NULL"}, "type": "Feature", "geometry": {"type": "Point", "coordinates": [141.25107, 38.91661]}}, {"properties": {"name": "岩ノ下", "uri": "https://uedayou.net/jrslod/東日本旅客鉄道/大船渡線/岩ノ下", "railname": "東日本旅客鉄道大船渡線", "door": "NULL"}, "type": "Feature", "geometry": {"type": "Point", "coordinates": [141.24535, 38.94776]}}, {"properties": {"name": "陸中松川", "uri": "https://uedayou.net/jrslod/東日本旅客鉄道/大船渡線/陸中松川", "railname": "東日本旅客鉄道大船渡線", "door": "NULL"}, "type": "Feature", "geometry": {"type": "Point", "coordinates": [141.23757, 38.97629]}}, {"properties": {"name": "猊鼻渓", "uri": "https://uedayou.net/jrslod/東日本旅客鉄道/大船渡線/猊鼻渓", "railname": "東日本旅客鉄道大船渡線", "door": "NULL"}, "type": "Feature", "geometry": {"type": "Point", "coordinates": [141.25328, 38.98891]}}, {"properties": {"name": "柴宿", "uri": "https://uedayou.net/jrslod/東日本旅客鉄道/大船渡線/柴宿", "railname": "東日本旅客鉄道大船渡線", "door": "NULL"}, "type": "Feature", "geometry": {"type": "Point", "coordinates": [141.27179, 38.99688]}}, {"properties": {"name": "摺沢", "uri": "https://uedayou.net/jrslod/東日本旅客鉄道/大船渡線/摺沢", "railname": "東日本旅客鉄道大船渡線", "door": "NULL"}, "type": "Feature", "geometry": {"type": "Point", "coordinates": [141.32039, 38.99613]}}, {"properties": {"name": "千厩", "uri": "https://uedayou.net/jrslod/東日本旅客鉄道/大船渡線/千厩", "railname": "東日本旅客鉄道大船渡線", "door": "NULL"}, "type": "Feature", "geometry": {"type": "Point", "coordinates": [141.3448, 38.92467]}}, {"properties": {"name": "小梨", "uri": "https://uedayou.net/jrslod/東日本旅客鉄道/大船渡線/小梨", "railname": "東日本旅客鉄道大船渡線", "door": "NULL"}, "type": "Feature", "geometry": {"type": "Point", "coordinates": [141.38418, 38.93243]}}, {"properties": {"name": "矢越", "uri": "https://uedayou.net/jrslod/東日本旅客鉄道/大船渡線/矢越", "railname": "東日本旅客鉄道大船渡線", "door": "NULL"}, "type": "Feature", "geometry": {"type": "Point", "coordinates": [141.42967, 38.93528]}}, {"properties": {"name": "折壁", "uri": "https://uedayou.net/jrslod/東日本旅客鉄道/大船渡線/折壁", "railname": "東日本旅客鉄道大船渡線", "door": "NULL"}, "type": "Feature", "geometry": {"type": "Point", "coordinates": [141.45163, 38.93931]}}, {"properties": {"name": "新月", "uri": "https://uedayou.net/jrslod/東日本旅客鉄道/大船渡線/新月", "railname": "東日本旅客鉄道大船渡線", "door": "NULL"}, "type": "Feature", "geometry": {"type": "Point", "coordinates": [141.48845, 38.91578]}}, {"properties": {"name": "気仙沼", "uri": "https://uedayou.net/jrslod/東日本旅客鉄道/大船渡線/気仙沼", "railname": "東日本旅客鉄道大船渡線", "door": "NULL"}, "type": "Feature", "geometry": {"type": "Point", "coordinates": [141.55807, 38.91042]}}]}