{"type": "FeatureCollection", "features": [{"properties": {"name": "前谷地", "uri": "https://uedayou.net/jrslod/東日本旅客鉄道/気仙沼線/前谷地", "railname": "東日本旅客鉄道気仙沼線", "door": "NULL"}, "type": "Feature", "geometry": {"type": "Point", "coordinates": [141.1954, 38.51175]}}, {"properties": {"name": "和渕", "uri": "https://uedayou.net/jrslod/東日本旅客鉄道/気仙沼線/和渕", "railname": "東日本旅客鉄道気仙沼線", "door": "NULL"}, "type": "Feature", "geometry": {"type": "Point", "coordinates": [141.22031, 38.52534]}}, {"properties": {"name": "のの岳", "uri": "https://uedayou.net/jrslod/東日本旅客鉄道/気仙沼線/のの岳", "railname": "東日本旅客鉄道気仙沼線", "door": "NULL"}, "type": "Feature", "geometry": {"type": "Point", "coordinates": [141.22572, 38.55328]}}, {"properties": {"name": "陸前豊里", "uri": "https://uedayou.net/jrslod/東日本旅客鉄道/気仙沼線/陸前豊里", "railname": "東日本旅客鉄道気仙沼線", "door": "NULL"}, "type": "Feature", "geometry": {"type": "Point", "coordinates": [141.2434, 38.58227]}}, {"properties": {"name": "御岳堂", "uri": "https://uedayou.net/jrslod/東日本旅客鉄道/気仙沼線/御岳堂", "railname": "東日本旅客鉄道気仙沼線", "door": "NULL"}, "type": "Feature", "geometry": {"type": "Point", "coordinates": [141.26485, 38.60607]}}, {"properties": {"name": "柳津", "uri": "https://uedayou.net/jrslod/東日本旅客鉄道/気仙沼線/柳津", "railname": "東日本旅客鉄道気仙沼線", "door": "NULL"}, "type": "Feature", "geometry": {"type": "Point", "coordinates": [141.30589, 38.61153]}}]}