{"type": "FeatureCollection", "features": [{"properties": {"name": "好摩", "uri": "https://uedayou.net/jrslod/東日本旅客鉄道/花輪線/好摩", "railname": "東日本旅客鉄道花輪線", "door": "NULL"}, "type": "Feature", "geometry": {"type": "Point", "coordinates": [141.1744, 39.87513]}}, {"properties": {"name": "東大更", "uri": "https://uedayou.net/jrslod/東日本旅客鉄道/花輪線/東大更", "railname": "東日本旅客鉄道花輪線", "door": "NULL"}, "type": "Feature", "geometry": {"type": "Point", "coordinates": [141.14177, 39.90273]}}, {"properties": {"name": "大更", "uri": "https://uedayou.net/jrslod/東日本旅客鉄道/花輪線/大更", "railname": "東日本旅客鉄道花輪線", "door": "NULL"}, "type": "Feature", "geometry": {"type": "Point", "coordinates": [141.10069, 39.91453]}}, {"properties": {"name": "平館", "uri": "https://uedayou.net/jrslod/東日本旅客鉄道/花輪線/平館", "railname": "東日本旅客鉄道花輪線", "door": "NULL"}, "type": "Feature", "geometry": {"type": "Point", "coordinates": [141.08567, 39.95071]}}, {"properties": {"name": "北森", "uri": "https://uedayou.net/jrslod/東日本旅客鉄道/花輪線/北森", "railname": "東日本旅客鉄道花輪線", "door": "NULL"}, "type": "Feature", "geometry": {"type": "Point", "coordinates": [141.071715, 39.956675]}}, {"properties": {"name": "松尾八幡平", "uri": "https://uedayou.net/jrslod/東日本旅客鉄道/花輪線/松尾八幡平", "railname": "東日本旅客鉄道花輪線", "door": "NULL"}, "type": "Feature", "geometry": {"type": "Point", "coordinates": [141.0434, 39.96939]}}, {"properties": {"name": "安比高原", "uri": "https://uedayou.net/jrslod/東日本旅客鉄道/花輪線/安比高原", "railname": "東日本旅客鉄道花輪線", "door": "NULL"}, "type": "Feature", "geometry": {"type": "Point", "coordinates": [140.99697, 40.01284]}}, {"properties": {"name": "赤坂田", "uri": "https://uedayou.net/jrslod/東日本旅客鉄道/花輪線/赤坂田", "railname": "東日本旅客鉄道花輪線", "door": "NULL"}, "type": "Feature", "geometry": {"type": "Point", "coordinates": [141.0036, 40.04826]}}, {"properties": {"name": "小屋の畑", "uri": "https://uedayou.net/jrslod/東日本旅客鉄道/花輪線/小屋の畑", "railname": "東日本旅客鉄道花輪線", "door": "NULL"}, "type": "Feature", "geometry": {"type": "Point", "coordinates": [141.02083, 40.07679]}}, {"properties": {"name": "荒屋新町", "uri": "https://uedayou.net/jrslod/東日本旅客鉄道/花輪線/荒屋新町", "railname": "東日本旅客鉄道花輪線", "door": "NULL"}, "type": "Feature", "geometry": {"type": "Point", "coordinates": [141.04918, 40.09737]}}, {"properties": {"name": "横間", "uri": "https://uedayou.net/jrslod/東日本旅客鉄道/花輪線/横間", "railname": "東日本旅客鉄道花輪線", "door": "NULL"}, "type": "Feature", "geometry": {"type": "Point", "coordinates": [141.02759, 40.10749]}}, {"properties": {"name": "田山", "uri": "https://uedayou.net/jrslod/東日本旅客鉄道/花輪線/田山", "railname": "東日本旅客鉄道花輪線", "door": "NULL"}, "type": "Feature", "geometry": {"type": "Point", "coordinates": [140.94326, 40.14006]}}, {"properties": {"name": "兄畑", "uri": "https://uedayou.net/jrslod/東日本旅客鉄道/花輪線/兄畑", "railname": "東日本旅客鉄道花輪線", "door": "NULL"}, "type": "Feature", "geometry": {"type": "Point", "coordinates": [140.88363, 40.11559]}}, {"properties": {"name": "湯瀬温泉", "uri": "https://uedayou.net/jrslod/東日本旅客鉄道/花輪線/湯瀬温泉", "railname": "東日本旅客鉄道花輪線", "door": "NULL"}, "type": "Feature", "geometry": {"type": "Point", "coordinates": [140.83987, 40.12265]}}, {"properties": {"name": "八幡平", "uri": "https://uedayou.net/jrslod/東日本旅客鉄道/花輪線/八幡平", "railname": "東日本旅客鉄道花輪線", "door": "NULL"}, "type": "Feature", "geometry": {"type": "Point", "coordinates": [140.8041, 40.1435]}}, {"properties": {"name": "陸中大里", "uri": "https://uedayou.net/jrslod/東日本旅客鉄道/花輪線/陸中大里", "railname": "東日本旅客鉄道花輪線", "door": "NULL"}, "type": "Feature", "geometry": {"type": "Point", "coordinates": [140.79329, 40.1589]}}, {"properties": {"name": "鹿角花輪", "uri": "https://uedayou.net/jrslod/東日本旅客鉄道/花輪線/鹿角花輪", "railname": "東日本旅客鉄道花輪線", "door": "NULL"}, "type": "Feature", "geometry": {"type": "Point", "coordinates": [140.78545, 40.1894]}}, {"properties": {"name": "柴平", "uri": "https://uedayou.net/jrslod/東日本旅客鉄道/花輪線/柴平", "railname": "東日本旅客鉄道花輪線", "door": "NULL"}, "type": "Feature", "geometry": {"type": "Point", "coordinates": [140.78799, 40.23109]}}, {"properties": {"name": "十和田南", "uri": "https://uedayou.net/jrslod/東日本旅客鉄道/花輪線/十和田南", "railname": "東日本旅客鉄道花輪線", "door": "NULL"}, "type": "Feature", "geometry": {"type": "Point", "coordinates": [140.77068, 40.2567]}}, {"properties": {"name": "末広", "uri": "https://uedayou.net/jrslod/東日本旅客鉄道/花輪線/末広", "railname": "東日本旅客鉄道花輪線", "door": "NULL"}, "type": "Feature", "geometry": {"type": "Point", "coordinates": [140.73705, 40.22952]}}, {"properties": {"name": "土深井", "uri": "https://uedayou.net/jrslod/東日本旅客鉄道/花輪線/土深井", "railname": "東日本旅客鉄道花輪線", "door": "NULL"}, "type": "Feature", "geometry": {"type": "Point", "coordinates": [140.71373, 40.22251]}}, {"properties": {"name": "沢尻", "uri": "https://uedayou.net/jrslod/東日本旅客鉄道/花輪線/沢尻", "railname": "東日本旅客鉄道花輪線", "door": "NULL"}, "type": "Feature", "geometry": {"type": "Point", "coordinates": [140.69286, 40.23022]}}, {"properties": {"name": "十二所", "uri": "https://uedayou.net/jrslod/東日本旅客鉄道/花輪線/十二所", "railname": "東日本旅客鉄道花輪線", "door": "NULL"}, "type": "Feature", "geometry": {"type": "Point", "coordinates": [140.66886, 40.21439]}}, {"properties": {"name": "大滝温泉", "uri": "https://uedayou.net/jrslod/東日本旅客鉄道/花輪線/大滝温泉", "railname": "東日本旅客鉄道花輪線", "door": "NULL"}, "type": "Feature", "geometry": {"type": "Point", "coordinates": [140.63892, 40.2096]}}, {"properties": {"name": "扇田", "uri": "https://uedayou.net/jrslod/東日本旅客鉄道/花輪線/扇田", "railname": "東日本旅客鉄道花輪線", "door": "NULL"}, "type": "Feature", "geometry": {"type": "Point", "coordinates": [140.57198, 40.22974]}}, {"properties": {"name": "東大館", "uri": "https://uedayou.net/jrslod/東日本旅客鉄道/花輪線/東大館", "railname": "東日本旅客鉄道花輪線", "door": "NULL"}, "type": "Feature", "geometry": {"type": "Point", "coordinates": [140.55499, 40.26569]}}, {"properties": {"name": "大館", "uri": "https://uedayou.net/jrslod/東日本旅客鉄道/花輪線/大館", "railname": "東日本旅客鉄道花輪線", "door": "NULL"}, "type": "Feature", "geometry": {"type": "Point", "coordinates": [140.55704, 40.28834]}}]}