{"type": "FeatureCollection", "features": [{"properties": {"name": "横浜", "uri": "https://uedayou.net/jrslod/東日本旅客鉄道/根岸線/横浜", "railname": "東日本旅客鉄道根岸線", "door": "NULL"}, "type": "Feature", "geometry": {"type": "Point", "coordinates": [139.62217, 35.46536]}}, {"properties": {"name": "桜木町", "uri": "https://uedayou.net/jrslod/東日本旅客鉄道/根岸線/桜木町", "railname": "東日本旅客鉄道根岸線", "door": "NULL"}, "type": "Feature", "geometry": {"type": "Point", "coordinates": [139.63005, 35.45186]}}, {"properties": {"name": "関内", "uri": "https://uedayou.net/jrslod/東日本旅客鉄道/根岸線/関内", "railname": "東日本旅客鉄道根岸線", "door": "NULL"}, "type": "Feature", "geometry": {"type": "Point", "coordinates": [139.63611, 35.4441]}}, {"properties": {"name": "石川町", "uri": "https://uedayou.net/jrslod/東日本旅客鉄道/根岸線/石川町", "railname": "東日本旅客鉄道根岸線", "door": "NULL"}, "type": "Feature", "geometry": {"type": "Point", "coordinates": [139.64276, 35.43925]}}, {"properties": {"name": "山手", "uri": "https://uedayou.net/jrslod/東日本旅客鉄道/根岸線/山手", "railname": "東日本旅客鉄道根岸線", "door": "NULL"}, "type": "Feature", "geometry": {"type": "Point", "coordinates": [139.64685, 35.42591]}}, {"properties": {"name": "根岸", "uri": "https://uedayou.net/jrslod/東日本旅客鉄道/根岸線/根岸", "railname": "東日本旅客鉄道根岸線", "door": "NULL"}, "type": "Feature", "geometry": {"type": "Point", "coordinates": [139.63725, 35.41615]}}, {"properties": {"name": "磯子", "uri": "https://uedayou.net/jrslod/東日本旅客鉄道/根岸線/磯子", "railname": "東日本旅客鉄道根岸線", "door": "NULL"}, "type": "Feature", "geometry": {"type": "Point", "coordinates": [139.61909, 35.40149]}}, {"properties": {"name": "新杉田", "uri": "https://uedayou.net/jrslod/東日本旅客鉄道/根岸線/新杉田", "railname": "東日本旅客鉄道根岸線", "door": "NULL"}, "type": "Feature", "geometry": {"type": "Point", "coordinates": [139.61884, 35.38754]}}, {"properties": {"name": "洋光台", "uri": "https://uedayou.net/jrslod/東日本旅客鉄道/根岸線/洋光台", "railname": "東日本旅客鉄道根岸線", "door": "NULL"}, "type": "Feature", "geometry": {"type": "Point", "coordinates": [139.59714, 35.37887]}}, {"properties": {"name": "港南台", "uri": "https://uedayou.net/jrslod/東日本旅客鉄道/根岸線/港南台", "railname": "東日本旅客鉄道根岸線", "door": "NULL"}, "type": "Feature", "geometry": {"type": "Point", "coordinates": [139.57605, 35.37513]}}, {"properties": {"name": "本郷台", "uri": "https://uedayou.net/jrslod/東日本旅客鉄道/根岸線/本郷台", "railname": "東日本旅客鉄道根岸線", "door": "NULL"}, "type": "Feature", "geometry": {"type": "Point", "coordinates": [139.5512, 35.36811]}}, {"properties": {"name": "大船", "uri": "https://uedayou.net/jrslod/東日本旅客鉄道/根岸線/大船", "railname": "東日本旅客鉄道根岸線", "door": "NULL"}, "type": "Feature", "geometry": {"type": "Point", "coordinates": [139.53155, 35.3542]}}]}