{"type": "FeatureCollection", "features": [{"properties": {"name": "高崎", "uri": "https://uedayou.net/jrslod/東日本旅客鉄道/上越線/高崎", "railname": "東日本旅客鉄道上越線", "door": "NULL"}, "type": "Feature", "geometry": {"type": "Point", "coordinates": [139.01243, 36.32143]}}, {"properties": {"name": "高崎問屋町", "uri": "https://uedayou.net/jrslod/東日本旅客鉄道/上越線/高崎問屋町", "railname": "東日本旅客鉄道上越線", "door": "NULL"}, "type": "Feature", "geometry": {"type": "Point", "coordinates": [139.01768, 36.34697]}}, {"properties": {"name": "井野", "uri": "https://uedayou.net/jrslod/東日本旅客鉄道/上越線/井野", "railname": "東日本旅客鉄道上越線", "door": "NULL"}, "type": "Feature", "geometry": {"type": "Point", "coordinates": [139.02376, 36.35836]}}, {"properties": {"name": "新前橋", "uri": "https://uedayou.net/jrslod/東日本旅客鉄道/上越線/新前橋", "railname": "東日本旅客鉄道上越線", "door": "NULL"}, "type": "Feature", "geometry": {"type": "Point", "coordinates": [139.04829, 36.37997]}}, {"properties": {"name": "群馬総社", "uri": "https://uedayou.net/jrslod/東日本旅客鉄道/上越線/群馬総社", "railname": "東日本旅客鉄道上越線", "door": "NULL"}, "type": "Feature", "geometry": {"type": "Point", "coordinates": [139.03253, 36.4142]}}, {"properties": {"name": "八木原", "uri": "https://uedayou.net/jrslod/東日本旅客鉄道/上越線/八木原", "railname": "東日本旅客鉄道上越線", "door": "NULL"}, "type": "Feature", "geometry": {"type": "Point", "coordinates": [139.01901, 36.4651]}}, {"properties": {"name": "渋川", "uri": "https://uedayou.net/jrslod/東日本旅客鉄道/上越線/渋川", "railname": "東日本旅客鉄道上越線", "door": "NULL"}, "type": "Feature", "geometry": {"type": "Point", "coordinates": [139.0083, 36.48986]}}, {"properties": {"name": "敷島", "uri": "https://uedayou.net/jrslod/東日本旅客鉄道/上越線/敷島", "railname": "東日本旅客鉄道上越線", "door": "NULL"}, "type": "Feature", "geometry": {"type": "Point", "coordinates": [139.03378, 36.53836]}}, {"properties": {"name": "津久田", "uri": "https://uedayou.net/jrslod/東日本旅客鉄道/上越線/津久田", "railname": "東日本旅客鉄道上越線", "door": "NULL"}, "type": "Feature", "geometry": {"type": "Point", "coordinates": [139.04266, 36.56139]}}, {"properties": {"name": "岩本", "uri": "https://uedayou.net/jrslod/東日本旅客鉄道/上越線/岩本", "railname": "東日本旅客鉄道上越線", "door": "NULL"}, "type": "Feature", "geometry": {"type": "Point", "coordinates": [139.0476, 36.60227]}}, {"properties": {"name": "沼田", "uri": "https://uedayou.net/jrslod/東日本旅客鉄道/上越線/沼田", "railname": "東日本旅客鉄道上越線", "door": "NULL"}, "type": "Feature", "geometry": {"type": "Point", "coordinates": [139.03491, 36.64335]}}, {"properties": {"name": "後閑", "uri": "https://uedayou.net/jrslod/東日本旅客鉄道/上越線/後閑", "railname": "東日本旅客鉄道上越線", "door": "NULL"}, "type": "Feature", "geometry": {"type": "Point", "coordinates": [139.00055, 36.67923]}}, {"properties": {"name": "上牧", "uri": "https://uedayou.net/jrslod/東日本旅客鉄道/上越線/上牧", "railname": "東日本旅客鉄道上越線", "door": "NULL"}, "type": "Feature", "geometry": {"type": "Point", "coordinates": [138.98439, 36.73466]}}, {"properties": {"name": "水上", "uri": "https://uedayou.net/jrslod/東日本旅客鉄道/上越線/水上", "railname": "東日本旅客鉄道上越線", "door": "NULL"}, "type": "Feature", "geometry": {"type": "Point", "coordinates": [138.96919, 36.77907]}}, {"properties": {"name": "湯檜曽", "uri": "https://uedayou.net/jrslod/東日本旅客鉄道/上越線/湯檜曽", "railname": "東日本旅客鉄道上越線", "door": "NULL"}, "type": "Feature", "geometry": {"type": "Point", "coordinates": [138.985589, 36.803079]}}, {"properties": {"name": "土合", "uri": "https://uedayou.net/jrslod/東日本旅客鉄道/上越線/土合", "railname": "東日本旅客鉄道上越線", "door": "NULL"}, "type": "Feature", "geometry": {"type": "Point", "coordinates": [138.9622, 36.82996]}}, {"properties": {"name": "土樽", "uri": "https://uedayou.net/jrslod/東日本旅客鉄道/上越線/土樽", "railname": "東日本旅客鉄道上越線", "door": "NULL"}, "type": "Feature", "geometry": {"type": "Point", "coordinates": [138.86161, 36.87525]}}, {"properties": {"name": "越後中里", "uri": "https://uedayou.net/jrslod/東日本旅客鉄道/上越線/越後中里", "railname": "東日本旅客鉄道上越線", "door": "NULL"}, "type": "Feature", "geometry": {"type": "Point", "coordinates": [138.84849, 36.91055]}}, {"properties": {"name": "岩原スキー場前", "uri": "https://uedayou.net/jrslod/東日本旅客鉄道/上越線/岩原スキー場前", "railname": "東日本旅客鉄道上越線", "door": "NULL"}, "type": "Feature", "geometry": {"type": "Point", "coordinates": [138.8393, 36.92414]}}, {"properties": {"name": "越後湯沢", "uri": "https://uedayou.net/jrslod/東日本旅客鉄道/上越線/越後湯沢", "railname": "東日本旅客鉄道上越線", "door": "NULL"}, "type": "Feature", "geometry": {"type": "Point", "coordinates": [138.80879, 36.93625]}}, {"properties": {"name": "ガーラ湯沢", "uri": "https://uedayou.net/jrslod/東日本旅客鉄道/上越線/ガーラ湯沢", "railname": "東日本旅客鉄道上越線", "door": "NULL"}, "type": "Feature", "geometry": {"type": "Point", "coordinates": [138.79903, 36.95154]}}, {"properties": {"name": "石打", "uri": "https://uedayou.net/jrslod/東日本旅客鉄道/上越線/石打", "railname": "東日本旅客鉄道上越線", "door": "NULL"}, "type": "Feature", "geometry": {"type": "Point", "coordinates": [138.80408, 36.98777]}}, {"properties": {"name": "大沢", "uri": "https://uedayou.net/jrslod/東日本旅客鉄道/上越線/大沢", "railname": "東日本旅客鉄道上越線", "door": "NULL"}, "type": "Feature", "geometry": {"type": "Point", "coordinates": [138.82103, 37.02069]}}, {"properties": {"name": "上越国際スキー場前", "uri": "https://uedayou.net/jrslod/東日本旅客鉄道/上越線/上越国際スキー場前", "railname": "東日本旅客鉄道上越線", "door": "NULL"}, "type": "Feature", "geometry": {"type": "Point", "coordinates": [138.82806, 37.02877]}}, {"properties": {"name": "塩沢", "uri": "https://uedayou.net/jrslod/東日本旅客鉄道/上越線/塩沢", "railname": "東日本旅客鉄道上越線", "door": "NULL"}, "type": "Feature", "geometry": {"type": "Point", "coordinates": [138.84754, 37.04119]}}, {"properties": {"name": "六日町", "uri": "https://uedayou.net/jrslod/東日本旅客鉄道/上越線/六日町", "railname": "東日本旅客鉄道上越線", "door": "NULL"}, "type": "Feature", "geometry": {"type": "Point", "coordinates": [138.87564, 37.0668]}}, {"properties": {"name": "五日町", "uri": "https://uedayou.net/jrslod/東日本旅客鉄道/上越線/五日町", "railname": "東日本旅客鉄道上越線", "door": "NULL"}, "type": "Feature", "geometry": {"type": "Point", "coordinates": [138.90839, 37.11983]}}, {"properties": {"name": "浦佐", "uri": "https://uedayou.net/jrslod/東日本旅客鉄道/上越線/浦佐", "railname": "東日本旅客鉄道上越線", "door": "NULL"}, "type": "Feature", "geometry": {"type": "Point", "coordinates": [138.92305, 37.16753]}}, {"properties": {"name": "八色", "uri": "https://uedayou.net/jrslod/東日本旅客鉄道/上越線/八色", "railname": "東日本旅客鉄道上越線", "door": "NULL"}, "type": "Feature", "geometry": {"type": "Point", "coordinates": [138.93572, 37.19233]}}, {"properties": {"name": "小出", "uri": "https://uedayou.net/jrslod/東日本旅客鉄道/上越線/小出", "railname": "東日本旅客鉄道上越線", "door": "NULL"}, "type": "Feature", "geometry": {"type": "Point", "coordinates": [138.95262, 37.23467]}}, {"properties": {"name": "越後堀之内", "uri": "https://uedayou.net/jrslod/東日本旅客鉄道/上越線/越後堀之内", "railname": "東日本旅客鉄道上越線", "door": "NULL"}, "type": "Feature", "geometry": {"type": "Point", "coordinates": [138.92955, 37.23841]}}, {"properties": {"name": "北堀之内", "uri": "https://uedayou.net/jrslod/東日本旅客鉄道/上越線/北堀之内", "railname": "東日本旅客鉄道上越線", "door": "NULL"}, "type": "Feature", "geometry": {"type": "Point", "coordinates": [138.89717, 37.25518]}}, {"properties": {"name": "越後川口", "uri": "https://uedayou.net/jrslod/東日本旅客鉄道/上越線/越後川口", "railname": "東日本旅客鉄道上越線", "door": "NULL"}, "type": "Feature", "geometry": {"type": "Point", "coordinates": [138.86174, 37.27302]}}, {"properties": {"name": "小千谷", "uri": "https://uedayou.net/jrslod/東日本旅客鉄道/上越線/小千谷", "railname": "東日本旅客鉄道上越線", "door": "NULL"}, "type": "Feature", "geometry": {"type": "Point", "coordinates": [138.81328, 37.31006]}}, {"properties": {"name": "越後滝谷", "uri": "https://uedayou.net/jrslod/東日本旅客鉄道/上越線/越後滝谷", "railname": "東日本旅客鉄道上越線", "door": "NULL"}, "type": "Feature", "geometry": {"type": "Point", "coordinates": [138.83497, 37.36888]}}, {"properties": {"name": "宮内", "uri": "https://uedayou.net/jrslod/東日本旅客鉄道/上越線/宮内", "railname": "東日本旅客鉄道上越線", "door": "NULL"}, "type": "Feature", "geometry": {"type": "Point", "coordinates": [138.84038, 37.42247]}}]}