{"type": "FeatureCollection", "features": [{"properties": {"name": "金山", "uri": "https://uedayou.net/jrslod/名古屋市交通局/名港線/金山", "railname": "名古屋市交通局名港線", "door": "NULL"}, "type": "Feature", "geometry": {"type": "Point", "coordinates": [136.90169, 35.14356]}}, {"properties": {"name": "日比野", "uri": "https://uedayou.net/jrslod/名古屋市交通局/名港線/日比野", "railname": "名古屋市交通局名港線", "door": "NULL"}, "type": "Feature", "geometry": {"type": "Point", "coordinates": [136.8929, 35.13247]}}, {"properties": {"name": "六番町", "uri": "https://uedayou.net/jrslod/名古屋市交通局/名港線/六番町", "railname": "名古屋市交通局名港線", "door": "NULL"}, "type": "Feature", "geometry": {"type": "Point", "coordinates": [136.88856, 35.12445]}}, {"properties": {"name": "東海通", "uri": "https://uedayou.net/jrslod/名古屋市交通局/名港線/東海通", "railname": "名古屋市交通局名港線", "door": "NULL"}, "type": "Feature", "geometry": {"type": "Point", "coordinates": [136.88597, 35.11314]}}, {"properties": {"name": "港区役所", "uri": "https://uedayou.net/jrslod/名古屋市交通局/名港線/港区役所", "railname": "名古屋市交通局名港線", "door": "NULL"}, "type": "Feature", "geometry": {"type": "Point", "coordinates": [136.88465, 35.10623]}}, {"properties": {"name": "築地口", "uri": "https://uedayou.net/jrslod/名古屋市交通局/名港線/築地口", "railname": "名古屋市交通局名港線", "door": "NULL"}, "type": "Feature", "geometry": {"type": "Point", "coordinates": [136.88326, 35.10027]}}, {"properties": {"name": "名古屋港", "uri": "https://uedayou.net/jrslod/名古屋市交通局/名港線/名古屋港", "railname": "名古屋市交通局名港線", "door": "NULL"}, "type": "Feature", "geometry": {"type": "Point", "coordinates": [136.88185, 35.09286]}}]}