{"type": "FeatureCollection", "features": [{"properties": {"name": "大曽根", "uri": "https://uedayou.net/jrslod/名古屋市交通局/4号線名城線/大曽根", "railname": "名古屋市交通局4号線名城線", "door": "NULL"}, "type": "Feature", "geometry": {"type": "Point", "coordinates": [136.93582, 35.19291]}}, {"properties": {"name": "ナゴヤドーム前矢田", "uri": "https://uedayou.net/jrslod/名古屋市交通局/4号線名城線/ナゴヤドーム前矢田", "railname": "名古屋市交通局4号線名城線", "door": "NULL"}, "type": "Feature", "geometry": {"type": "Point", "coordinates": [136.94358, 35.19102]}}, {"properties": {"name": "砂田橋", "uri": "https://uedayou.net/jrslod/名古屋市交通局/4号線名城線/砂田橋", "railname": "名古屋市交通局4号線名城線", "door": "NULL"}, "type": "Feature", "geometry": {"type": "Point", "coordinates": [136.95504, 35.18862]}}, {"properties": {"name": "茶屋ヶ坂", "uri": "https://uedayou.net/jrslod/名古屋市交通局/4号線名城線/茶屋ヶ坂", "railname": "名古屋市交通局4号線名城線", "door": "NULL"}, "type": "Feature", "geometry": {"type": "Point", "coordinates": [136.96264, 35.18405]}}, {"properties": {"name": "自由ヶ丘", "uri": "https://uedayou.net/jrslod/名古屋市交通局/4号線名城線/自由ヶ丘", "railname": "名古屋市交通局4号線名城線", "door": "NULL"}, "type": "Feature", "geometry": {"type": "Point", "coordinates": [136.96709, 35.17622]}}, {"properties": {"name": "本山", "uri": "https://uedayou.net/jrslod/名古屋市交通局/4号線名城線/本山", "railname": "名古屋市交通局4号線名城線", "door": "NULL"}, "type": "Feature", "geometry": {"type": "Point", "coordinates": [136.96395, 35.16217]}}, {"properties": {"name": "名古屋大学", "uri": "https://uedayou.net/jrslod/名古屋市交通局/4号線名城線/名古屋大学", "railname": "名古屋市交通局4号線名城線", "door": "NULL"}, "type": "Feature", "geometry": {"type": "Point", "coordinates": [136.9666, 35.15451]}}, {"properties": {"name": "八事日赤", "uri": "https://uedayou.net/jrslod/名古屋市交通局/4号線名城線/八事日赤", "railname": "名古屋市交通局4号線名城線", "door": "NULL"}, "type": "Feature", "geometry": {"type": "Point", "coordinates": [136.96472, 35.14499]}}, {"properties": {"name": "八事", "uri": "https://uedayou.net/jrslod/名古屋市交通局/4号線名城線/八事", "railname": "名古屋市交通局4号線名城線", "door": "NULL"}, "type": "Feature", "geometry": {"type": "Point", "coordinates": [136.96465, 35.13717]}}, {"properties": {"name": "総合リハビリセンター", "uri": "https://uedayou.net/jrslod/名古屋市交通局/4号線名城線/総合リハビリセンター", "railname": "名古屋市交通局4号線名城線", "door": "NULL"}, "type": "Feature", "geometry": {"type": "Point", "coordinates": [136.95432, 35.13034]}}, {"properties": {"name": "瑞穂運動場東", "uri": "https://uedayou.net/jrslod/名古屋市交通局/4号線名城線/瑞穂運動場東", "railname": "名古屋市交通局4号線名城線", "door": "NULL"}, "type": "Feature", "geometry": {"type": "Point", "coordinates": [136.94824, 35.12254]}}, {"properties": {"name": "新瑞橋", "uri": "https://uedayou.net/jrslod/名古屋市交通局/4号線名城線/新瑞橋", "railname": "名古屋市交通局4号線名城線", "door": "NULL"}, "type": "Feature", "geometry": {"type": "Point", "coordinates": [136.93678, 35.11772]}}, {"properties": {"name": "妙音通", "uri": "https://uedayou.net/jrslod/名古屋市交通局/4号線名城線/妙音通", "railname": "名古屋市交通局4号線名城線", "door": "NULL"}, "type": "Feature", "geometry": {"type": "Point", "coordinates": [136.92912, 35.11708]}}, {"properties": {"name": "堀田", "uri": "https://uedayou.net/jrslod/名古屋市交通局/4号線名城線/堀田", "railname": "名古屋市交通局4号線名城線", "door": "NULL"}, "type": "Feature", "geometry": {"type": "Point", "coordinates": [136.9218, 35.11648]}}, {"properties": {"name": "伝馬町", "uri": "https://uedayou.net/jrslod/名古屋市交通局/4号線名城線/伝馬町", "railname": "名古屋市交通局4号線名城線", "door": "NULL"}, "type": "Feature", "geometry": {"type": "Point", "coordinates": [136.91081, 35.12073]}}, {"properties": {"name": "神宮西", "uri": "https://uedayou.net/jrslod/名古屋市交通局/4号線名城線/神宮西", "railname": "名古屋市交通局4号線名城線", "door": "NULL"}, "type": "Feature", "geometry": {"type": "Point", "coordinates": [136.90671, 35.12796]}}, {"properties": {"name": "西高蔵", "uri": "https://uedayou.net/jrslod/名古屋市交通局/4号線名城線/西高蔵", "railname": "名古屋市交通局4号線名城線", "door": "NULL"}, "type": "Feature", "geometry": {"type": "Point", "coordinates": [136.90159, 35.13519]}}, {"properties": {"name": "金山", "uri": "https://uedayou.net/jrslod/名古屋市交通局/4号線名城線/金山", "railname": "名古屋市交通局4号線名城線", "door": "NULL"}, "type": "Feature", "geometry": {"type": "Point", "coordinates": [136.90169, 35.14356]}}]}