{"type": "FeatureCollection", "features": [{"properties": {"name": "三ノ輪橋", "uri": "https://uedayou.net/jrslod/東京都交通局/都電荒川線/三ノ輪橋", "railname": "東京都交通局都電荒川線", "door": "NULL"}, "type": "Feature", "geometry": {"type": "Point", "coordinates": [139.79174, 35.73209]}}, {"properties": {"name": "荒川一中前", "uri": "https://uedayou.net/jrslod/東京都交通局/都電荒川線/荒川一中前", "railname": "東京都交通局都電荒川線", "door": "NULL"}, "type": "Feature", "geometry": {"type": "Point", "coordinates": [139.78893, 35.73362]}}, {"properties": {"name": "荒川区役所前", "uri": "https://uedayou.net/jrslod/東京都交通局/都電荒川線/荒川区役所前", "railname": "東京都交通局都電荒川線", "door": "NULL"}, "type": "Feature", "geometry": {"type": "Point", "coordinates": [139.78617, 35.73519]}}, {"properties": {"name": "荒川二丁目", "uri": "https://uedayou.net/jrslod/東京都交通局/都電荒川線/荒川二丁目", "railname": "東京都交通局都電荒川線", "door": "NULL"}, "type": "Feature", "geometry": {"type": "Point", "coordinates": [139.78469, 35.73883]}}, {"properties": {"name": "荒川七丁目", "uri": "https://uedayou.net/jrslod/東京都交通局/都電荒川線/荒川七丁目", "railname": "東京都交通局都電荒川線", "door": "NULL"}, "type": "Feature", "geometry": {"type": "Point", "coordinates": [139.78392, 35.74205]}}, {"properties": {"name": "町屋駅前", "uri": "https://uedayou.net/jrslod/東京都交通局/都電荒川線/町屋駅前", "railname": "東京都交通局都電荒川線", "door": "NULL"}, "type": "Feature", "geometry": {"type": "Point", "coordinates": [139.78088, 35.74275]}}, {"properties": {"name": "町屋二丁目", "uri": "https://uedayou.net/jrslod/東京都交通局/都電荒川線/町屋二丁目", "railname": "東京都交通局都電荒川線", "door": "NULL"}, "type": "Feature", "geometry": {"type": "Point", "coordinates": [139.7762, 35.74408]}}, {"properties": {"name": "東尾久三丁目", "uri": "https://uedayou.net/jrslod/東京都交通局/都電荒川線/東尾久三丁目", "railname": "東京都交通局都電荒川線", "door": "NULL"}, "type": "Feature", "geometry": {"type": "Point", "coordinates": [139.77375, 35.74569]}}, {"properties": {"name": "熊野前", "uri": "https://uedayou.net/jrslod/東京都交通局/都電荒川線/熊野前", "railname": "東京都交通局都電荒川線", "door": "NULL"}, "type": "Feature", "geometry": {"type": "Point", "coordinates": [139.76955, 35.74914]}}, {"properties": {"name": "宮ノ前", "uri": "https://uedayou.net/jrslod/東京都交通局/都電荒川線/宮ノ前", "railname": "東京都交通局都電荒川線", "door": "NULL"}, "type": "Feature", "geometry": {"type": "Point", "coordinates": [139.76564, 35.74991]}}, {"properties": {"name": "小台", "uri": "https://uedayou.net/jrslod/東京都交通局/都電荒川線/小台", "railname": "東京都交通局都電荒川線", "door": "NULL"}, "type": "Feature", "geometry": {"type": "Point", "coordinates": [139.76147, 35.7505]}}, {"properties": {"name": "荒川遊園地前", "uri": "https://uedayou.net/jrslod/東京都交通局/都電荒川線/荒川遊園地前", "railname": "東京都交通局都電荒川線", "door": "NULL"}, "type": "Feature", "geometry": {"type": "Point", "coordinates": [139.75741, 35.75065]}}, {"properties": {"name": "荒川車庫前", "uri": "https://uedayou.net/jrslod/東京都交通局/都電荒川線/荒川車庫前", "railname": "東京都交通局都電荒川線", "door": "NULL"}, "type": "Feature", "geometry": {"type": "Point", "coordinates": [139.75256, 35.75087]}}, {"properties": {"name": "梶原", "uri": "https://uedayou.net/jrslod/東京都交通局/都電荒川線/梶原", "railname": "東京都交通局都電荒川線", "door": "NULL"}, "type": "Feature", "geometry": {"type": "Point", "coordinates": [139.74758, 35.75107]}}, {"properties": {"name": "栄町", "uri": "https://uedayou.net/jrslod/東京都交通局/都電荒川線/栄町", "railname": "東京都交通局都電荒川線", "door": "NULL"}, "type": "Feature", "geometry": {"type": "Point", "coordinates": [139.74193, 35.75082]}}, {"properties": {"name": "王子駅前", "uri": "https://uedayou.net/jrslod/東京都交通局/都電荒川線/王子駅前", "railname": "東京都交通局都電荒川線", "door": "NULL"}, "type": "Feature", "geometry": {"type": "Point", "coordinates": [139.73824, 35.75274]}}, {"properties": {"name": "飛鳥山", "uri": "https://uedayou.net/jrslod/東京都交通局/都電荒川線/飛鳥山", "railname": "東京都交通局都電荒川線", "door": "NULL"}, "type": "Feature", "geometry": {"type": "Point", "coordinates": [139.73743, 35.75024]}}, {"properties": {"name": "滝野川一丁目", "uri": "https://uedayou.net/jrslod/東京都交通局/都電荒川線/滝野川一丁目", "railname": "東京都交通局都電荒川線", "door": "NULL"}, "type": "Feature", "geometry": {"type": "Point", "coordinates": [139.73533, 35.74718]}}, {"properties": {"name": "西ヶ原四丁目", "uri": "https://uedayou.net/jrslod/東京都交通局/都電荒川線/西ヶ原四丁目", "railname": "東京都交通局都電荒川線", "door": "NULL"}, "type": "Feature", "geometry": {"type": "Point", "coordinates": [139.73283, 35.74443]}}, {"properties": {"name": "新庚申塚", "uri": "https://uedayou.net/jrslod/東京都交通局/都電荒川線/新庚申塚", "railname": "東京都交通局都電荒川線", "door": "NULL"}, "type": "Feature", "geometry": {"type": "Point", "coordinates": [139.73024, 35.74092]}}, {"properties": {"name": "庚申塚", "uri": "https://uedayou.net/jrslod/東京都交通局/都電荒川線/庚申塚", "railname": "東京都交通局都電荒川線", "door": "NULL"}, "type": "Feature", "geometry": {"type": "Point", "coordinates": [139.72964, 35.73933]}}, {"properties": {"name": "巣鴨新田", "uri": "https://uedayou.net/jrslod/東京都交通局/都電荒川線/巣鴨新田", "railname": "東京都交通局都電荒川線", "door": "NULL"}, "type": "Feature", "geometry": {"type": "Point", "coordinates": [139.72804, 35.73496]}}, {"properties": {"name": "大塚駅前", "uri": "https://uedayou.net/jrslod/東京都交通局/都電荒川線/大塚駅前", "railname": "東京都交通局都電荒川線", "door": "NULL"}, "type": "Feature", "geometry": {"type": "Point", "coordinates": [139.7294, 35.73145]}}, {"properties": {"name": "向原", "uri": "https://uedayou.net/jrslod/東京都交通局/都電荒川線/向原", "railname": "東京都交通局都電荒川線", "door": "NULL"}, "type": "Feature", "geometry": {"type": "Point", "coordinates": [139.72498, 35.72893]}}, {"properties": {"name": "東池袋四丁目", "uri": "https://uedayou.net/jrslod/東京都交通局/都電荒川線/東池袋四丁目", "railname": "東京都交通局都電荒川線", "door": "NULL"}, "type": "Feature", "geometry": {"type": "Point", "coordinates": [139.7205, 35.7254]}}, {"properties": {"name": "都電雑司ヶ谷", "uri": "https://uedayou.net/jrslod/東京都交通局/都電荒川線/都電雑司ヶ谷", "railname": "東京都交通局都電荒川線", "door": "NULL"}, "type": "Feature", "geometry": {"type": "Point", "coordinates": [139.71779, 35.72405]}}, {"properties": {"name": "鬼子母神前", "uri": "https://uedayou.net/jrslod/東京都交通局/都電荒川線/鬼子母神前", "railname": "東京都交通局都電荒川線", "door": "NULL"}, "type": "Feature", "geometry": {"type": "Point", "coordinates": [139.71502, 35.7204]}}, {"properties": {"name": "学習院下", "uri": "https://uedayou.net/jrslod/東京都交通局/都電荒川線/学習院下", "railname": "東京都交通局都電荒川線", "door": "NULL"}, "type": "Feature", "geometry": {"type": "Point", "coordinates": [139.71221, 35.71554]}}, {"properties": {"name": "面影橋", "uri": "https://uedayou.net/jrslod/東京都交通局/都電荒川線/面影橋", "railname": "東京都交通局都電荒川線", "door": "NULL"}, "type": "Feature", "geometry": {"type": "Point", "coordinates": [139.71492, 35.71281]}}, {"properties": {"name": "早稲田", "uri": "https://uedayou.net/jrslod/東京都交通局/都電荒川線/早稲田", "railname": "東京都交通局都電荒川線", "door": "NULL"}, "type": "Feature", "geometry": {"type": "Point", "coordinates": [139.71929, 35.71181]}}]}