{"type": "FeatureCollection", "features": [{"properties": {"name": "盛", "uri": "https://uedayou.net/jrslod/三陸鉄道/リアス線/盛", "railname": "三陸鉄道リアス線", "door": "NULL"}, "type": "Feature", "geometry": {"type": "Point", "coordinates": [141.71095, 39.0852]}}, {"properties": {"name": "陸前赤崎", "uri": "https://uedayou.net/jrslod/三陸鉄道/リアス線/陸前赤崎", "railname": "三陸鉄道リアス線", "door": "NULL"}, "type": "Feature", "geometry": {"type": "Point", "coordinates": [141.7414, 39.06838]}}, {"properties": {"name": "綾里", "uri": "https://uedayou.net/jrslod/三陸鉄道/リアス線/綾里", "railname": "三陸鉄道リアス線", "door": "NULL"}, "type": "Feature", "geometry": {"type": "Point", "coordinates": [141.79898, 39.0541]}}, {"properties": {"name": "恋し浜", "uri": "https://uedayou.net/jrslod/三陸鉄道/リアス線/恋し浜", "railname": "三陸鉄道リアス線", "door": "NULL"}, "type": "Feature", "geometry": {"type": "Point", "coordinates": [141.816, 39.07459]}}, {"properties": {"name": "甫嶺", "uri": "https://uedayou.net/jrslod/三陸鉄道/リアス線/甫嶺", "railname": "三陸鉄道リアス線", "door": "NULL"}, "type": "Feature", "geometry": {"type": "Point", "coordinates": [141.80666, 39.09361]}}, {"properties": {"name": "三陸", "uri": "https://uedayou.net/jrslod/三陸鉄道/リアス線/三陸", "railname": "三陸鉄道リアス線", "door": "NULL"}, "type": "Feature", "geometry": {"type": "Point", "coordinates": [141.81, 39.11685]}}, {"properties": {"name": "吉浜", "uri": "https://uedayou.net/jrslod/三陸鉄道/リアス線/吉浜", "railname": "三陸鉄道リアス線", "door": "NULL"}, "type": "Feature", "geometry": {"type": "Point", "coordinates": [141.83684, 39.15135]}}, {"properties": {"name": "唐丹", "uri": "https://uedayou.net/jrslod/三陸鉄道/リアス線/唐丹", "railname": "三陸鉄道リアス線", "door": "NULL"}, "type": "Feature", "geometry": {"type": "Point", "coordinates": [141.86106, 39.20152]}}, {"properties": {"name": "平田", "uri": "https://uedayou.net/jrslod/三陸鉄道/リアス線/平田", "railname": "三陸鉄道リアス線", "door": "NULL"}, "type": "Feature", "geometry": {"type": "Point", "coordinates": [141.88609, 39.24603]}}, {"properties": {"name": "釜石", "uri": "https://uedayou.net/jrslod/三陸鉄道/リアス線/釜石", "railname": "三陸鉄道リアス線", "door": "NULL"}, "type": "Feature", "geometry": {"type": "Point", "coordinates": [141.87225, 39.27356]}}, {"properties": {"name": "両石", "uri": "https://uedayou.net/jrslod/三陸鉄道/リアス線/両石", "railname": "三陸鉄道リアス線", "door": "NULL"}, "type": "Feature", "geometry": {"type": "Point", "coordinates": [141.88923, 39.30779]}}, {"properties": {"name": "鵜住居", "uri": "https://uedayou.net/jrslod/三陸鉄道/リアス線/鵜住居", "railname": "三陸鉄道リアス線", "door": "NULL"}, "type": "Feature", "geometry": {"type": "Point", "coordinates": [141.88772, 39.32638]}}, {"properties": {"name": "大槌", "uri": "https://uedayou.net/jrslod/三陸鉄道/リアス線/大槌", "railname": "三陸鉄道リアス線", "door": "NULL"}, "type": "Feature", "geometry": {"type": "Point", "coordinates": [141.9042, 39.35692]}}, {"properties": {"name": "吉里吉里", "uri": "https://uedayou.net/jrslod/三陸鉄道/リアス線/吉里吉里", "railname": "三陸鉄道リアス線", "door": "NULL"}, "type": "Feature", "geometry": {"type": "Point", "coordinates": [141.93841, 39.36925]}}, {"properties": {"name": "浪板海岸", "uri": "https://uedayou.net/jrslod/三陸鉄道/リアス線/浪板海岸", "railname": "三陸鉄道リアス線", "door": "NULL"}, "type": "Feature", "geometry": {"type": "Point", "coordinates": [141.93521, 39.3839]}}, {"properties": {"name": "岩手船越", "uri": "https://uedayou.net/jrslod/三陸鉄道/リアス線/岩手船越", "railname": "三陸鉄道リアス線", "door": "NULL"}, "type": "Feature", "geometry": {"type": "Point", "coordinates": [141.97425, 39.43191]}}, {"properties": {"name": "織笠", "uri": "https://uedayou.net/jrslod/三陸鉄道/リアス線/織笠", "railname": "三陸鉄道リアス線", "door": "NULL"}, "type": "Feature", "geometry": {"type": "Point", "coordinates": [141.955263, 39.453447]}}, {"properties": {"name": "陸中山田", "uri": "https://uedayou.net/jrslod/三陸鉄道/リアス線/陸中山田", "railname": "三陸鉄道リアス線", "door": "NULL"}, "type": "Feature", "geometry": {"type": "Point", "coordinates": [141.95194, 39.46315]}}, {"properties": {"name": "豊間根", "uri": "https://uedayou.net/jrslod/三陸鉄道/リアス線/豊間根", "railname": "三陸鉄道リアス線", "door": "NULL"}, "type": "Feature", "geometry": {"type": "Point", "coordinates": [141.92462, 39.53369]}}, {"properties": {"name": "払川", "uri": "https://uedayou.net/jrslod/三陸鉄道/リアス線/払川", "railname": "三陸鉄道リアス線", "door": "NULL"}, "type": "Feature", "geometry": {"type": "Point", "coordinates": [141.933079, 39.56413]}}, {"properties": {"name": "津軽石", "uri": "https://uedayou.net/jrslod/三陸鉄道/リアス線/津軽石", "railname": "三陸鉄道リアス線", "door": "NULL"}, "type": "Feature", "geometry": {"type": "Point", "coordinates": [141.93807, 39.58195]}}, {"properties": {"name": "八木沢・宮古短大", "uri": "https://uedayou.net/jrslod/三陸鉄道/リアス線/八木沢・宮古短大", "railname": "三陸鉄道リアス線", "door": "NULL"}, "type": "Feature", "geometry": {"type": "Point", "coordinates": [141.946021, 39.619078]}}, {"properties": {"name": "磯鶏", "uri": "https://uedayou.net/jrslod/三陸鉄道/リアス線/磯鶏", "railname": "三陸鉄道リアス線", "door": "NULL"}, "type": "Feature", "geometry": {"type": "Point", "coordinates": [141.96104, 39.63086]}}, {"properties": {"name": "宮古", "uri": "https://uedayou.net/jrslod/三陸鉄道/リアス線/宮古", "railname": "三陸鉄道リアス線", "door": "NULL"}, "type": "Feature", "geometry": {"type": "Point", "coordinates": [141.94829, 39.63969]}}, {"properties": {"name": "山口団地", "uri": "https://uedayou.net/jrslod/三陸鉄道/リアス線/山口団地", "railname": "三陸鉄道リアス線", "door": "NULL"}, "type": "Feature", "geometry": {"type": "Point", "coordinates": [141.933275, 39.646117]}}, {"properties": {"name": "一の渡", "uri": "https://uedayou.net/jrslod/三陸鉄道/リアス線/一の渡", "railname": "三陸鉄道リアス線", "door": "NULL"}, "type": "Feature", "geometry": {"type": "Point", "coordinates": [141.94253, 39.68655]}}, {"properties": {"name": "佐羽根", "uri": "https://uedayou.net/jrslod/三陸鉄道/リアス線/佐羽根", "railname": "三陸鉄道リアス線", "door": "NULL"}, "type": "Feature", "geometry": {"type": "Point", "coordinates": [141.93588, 39.71112]}}, {"properties": {"name": "田老", "uri": "https://uedayou.net/jrslod/三陸鉄道/リアス線/田老", "railname": "三陸鉄道リアス線", "door": "NULL"}, "type": "Feature", "geometry": {"type": "Point", "coordinates": [141.96438, 39.73152]}}, {"properties": {"name": "新田老", "uri": "https://uedayou.net/jrslod/三陸鉄道/リアス線/新田老", "railname": "三陸鉄道リアス線", "door": "NULL"}, "type": "Feature", "geometry": {"type": "Point", "coordinates": [141.967307, 39.735724]}}, {"properties": {"name": "摂待", "uri": "https://uedayou.net/jrslod/三陸鉄道/リアス線/摂待", "railname": "三陸鉄道リアス線", "door": "NULL"}, "type": "Feature", "geometry": {"type": "Point", "coordinates": [141.96209, 39.80916]}}, {"properties": {"name": "岩泉小本", "uri": "https://uedayou.net/jrslod/三陸鉄道/リアス線/岩泉小本", "railname": "三陸鉄道リアス線", "door": "NULL"}, "type": "Feature", "geometry": {"type": "Point", "coordinates": [141.95853, 39.84242]}}, {"properties": {"name": "島越", "uri": "https://uedayou.net/jrslod/三陸鉄道/リアス線/島越", "railname": "三陸鉄道リアス線", "door": "NULL"}, "type": "Feature", "geometry": {"type": "Point", "coordinates": [141.93975, 39.91538]}}, {"properties": {"name": "田野畑", "uri": "https://uedayou.net/jrslod/三陸鉄道/リアス線/田野畑", "railname": "三陸鉄道リアス線", "door": "NULL"}, "type": "Feature", "geometry": {"type": "Point", "coordinates": [141.93356, 39.93457]}}, {"properties": {"name": "普代", "uri": "https://uedayou.net/jrslod/三陸鉄道/リアス線/普代", "railname": "三陸鉄道リアス線", "door": "NULL"}, "type": "Feature", "geometry": {"type": "Point", "coordinates": [141.88634, 40.0028]}}, {"properties": {"name": "白井海岸", "uri": "https://uedayou.net/jrslod/三陸鉄道/リアス線/白井海岸", "railname": "三陸鉄道リアス線", "door": "NULL"}, "type": "Feature", "geometry": {"type": "Point", "coordinates": [141.88297, 40.03293]}}, {"properties": {"name": "堀内", "uri": "https://uedayou.net/jrslod/三陸鉄道/リアス線/堀内", "railname": "三陸鉄道リアス線", "door": "NULL"}, "type": "Feature", "geometry": {"type": "Point", "coordinates": [141.8591, 40.05212]}}, {"properties": {"name": "野田玉川", "uri": "https://uedayou.net/jrslod/三陸鉄道/リアス線/野田玉川", "railname": "三陸鉄道リアス線", "door": "NULL"}, "type": "Feature", "geometry": {"type": "Point", "coordinates": [141.82876, 40.08309]}}, {"properties": {"name": "十府ヶ浦海岸", "uri": "https://uedayou.net/jrslod/三陸鉄道/リアス線/十府ヶ浦海岸", "railname": "三陸鉄道リアス線", "door": "NULL"}, "type": "Feature", "geometry": {"type": "Point", "coordinates": [141.82414, 40.096613]}}, {"properties": {"name": "陸中野田", "uri": "https://uedayou.net/jrslod/三陸鉄道/リアス線/陸中野田", "railname": "三陸鉄道リアス線", "door": "NULL"}, "type": "Feature", "geometry": {"type": "Point", "coordinates": [141.81943, 40.11583]}}, {"properties": {"name": "陸中宇部", "uri": "https://uedayou.net/jrslod/三陸鉄道/リアス線/陸中宇部", "railname": "三陸鉄道リアス線", "door": "NULL"}, "type": "Feature", "geometry": {"type": "Point", "coordinates": [141.78641, 40.13234]}}, {"properties": {"name": "久慈", "uri": "https://uedayou.net/jrslod/三陸鉄道/リアス線/久慈", "railname": "三陸鉄道リアス線", "door": "NULL"}, "type": "Feature", "geometry": {"type": "Point", "coordinates": [141.77103, 40.18982]}}]}