{"type": "FeatureCollection", "features": [{"properties": {"name": "堀ノ内", "uri": "https://uedayou.net/jrslod/京浜急行電鉄/京急久里浜線/堀ノ内", "railname": "京浜急行電鉄京急久里浜線", "door": "NULL"}, "type": "Feature", "geometry": {"type": "Point", "coordinates": [139.68772, 35.26279]}}, {"properties": {"name": "新大津", "uri": "https://uedayou.net/jrslod/京浜急行電鉄/京急久里浜線/新大津", "railname": "京浜急行電鉄京急久里浜線", "door": "NULL"}, "type": "Feature", "geometry": {"type": "Point", "coordinates": [139.69025, 35.25713]}}, {"properties": {"name": "北久里浜", "uri": "https://uedayou.net/jrslod/京浜急行電鉄/京急久里浜線/北久里浜", "railname": "京浜急行電鉄京急久里浜線", "door": "NULL"}, "type": "Feature", "geometry": {"type": "Point", "coordinates": [139.68634, 35.24905]}}, {"properties": {"name": "京急久里浜", "uri": "https://uedayou.net/jrslod/京浜急行電鉄/京急久里浜線/京急久里浜", "railname": "京浜急行電鉄京急久里浜線", "door": "NULL"}, "type": "Feature", "geometry": {"type": "Point", "coordinates": [139.7021, 35.2308]}}, {"properties": {"name": "ＹＲＰ野比", "uri": "https://uedayou.net/jrslod/京浜急行電鉄/京急久里浜線/ＹＲＰ野比", "railname": "京浜急行電鉄京急久里浜線", "door": "NULL"}, "type": "Feature", "geometry": {"type": "Point", "coordinates": [139.68487, 35.21195]}}, {"properties": {"name": "京急長沢", "uri": "https://uedayou.net/jrslod/京浜急行電鉄/京急久里浜線/京急長沢", "railname": "京浜急行電鉄京急久里浜線", "door": "NULL"}, "type": "Feature", "geometry": {"type": "Point", "coordinates": [139.67352, 35.20524]}}, {"properties": {"name": "津久井浜", "uri": "https://uedayou.net/jrslod/京浜急行電鉄/京急久里浜線/津久井浜", "railname": "京浜急行電鉄京急久里浜線", "door": "NULL"}, "type": "Feature", "geometry": {"type": "Point", "coordinates": [139.66542, 35.19857]}}, {"properties": {"name": "三浦海岸", "uri": "https://uedayou.net/jrslod/京浜急行電鉄/京急久里浜線/三浦海岸", "railname": "京浜急行電鉄京急久里浜線", "door": "NULL"}, "type": "Feature", "geometry": {"type": "Point", "coordinates": [139.65274, 35.1878]}}, {"properties": {"name": "三崎口", "uri": "https://uedayou.net/jrslod/京浜急行電鉄/京急久里浜線/三崎口", "railname": "京浜急行電鉄京急久里浜線", "door": "NULL"}, "type": "Feature", "geometry": {"type": "Point", "coordinates": [139.63338, 35.17827]}}]}