{"type": "FeatureCollection", "features": [{"properties": {"name": "品川", "uri": "https://uedayou.net/jrslod/京浜急行電鉄/京急本線/品川", "railname": "京浜急行電鉄京急本線", "door": "NULL"}, "type": "Feature", "geometry": {"type": "Point", "coordinates": [139.73799, 35.62774]}}, {"properties": {"name": "北品川", "uri": "https://uedayou.net/jrslod/京浜急行電鉄/京急本線/北品川", "railname": "京浜急行電鉄京急本線", "door": "NULL"}, "type": "Feature", "geometry": {"type": "Point", "coordinates": [139.73929, 35.6224]}}, {"properties": {"name": "新馬場", "uri": "https://uedayou.net/jrslod/京浜急行電鉄/京急本線/新馬場", "railname": "京浜急行電鉄京急本線", "door": "NULL"}, "type": "Feature", "geometry": {"type": "Point", "coordinates": [139.74154, 35.61644]}}, {"properties": {"name": "青物横丁", "uri": "https://uedayou.net/jrslod/京浜急行電鉄/京急本線/青物横丁", "railname": "京浜急行電鉄京急本線", "door": "NULL"}, "type": "Feature", "geometry": {"type": "Point", "coordinates": [139.74324, 35.60864]}}, {"properties": {"name": "鮫洲", "uri": "https://uedayou.net/jrslod/京浜急行電鉄/京急本線/鮫洲", "railname": "京浜急行電鉄京急本線", "door": "NULL"}, "type": "Feature", "geometry": {"type": "Point", "coordinates": [139.74214, 35.60469]}}, {"properties": {"name": "立会川", "uri": "https://uedayou.net/jrslod/京浜急行電鉄/京急本線/立会川", "railname": "京浜急行電鉄京急本線", "door": "NULL"}, "type": "Feature", "geometry": {"type": "Point", "coordinates": [139.73879, 35.59817]}}, {"properties": {"name": "大森海岸", "uri": "https://uedayou.net/jrslod/京浜急行電鉄/京急本線/大森海岸", "railname": "京浜急行電鉄京急本線", "door": "NULL"}, "type": "Feature", "geometry": {"type": "Point", "coordinates": [139.7353, 35.58737]}}, {"properties": {"name": "平和島", "uri": "https://uedayou.net/jrslod/京浜急行電鉄/京急本線/平和島", "railname": "京浜急行電鉄京急本線", "door": "NULL"}, "type": "Feature", "geometry": {"type": "Point", "coordinates": [139.73495, 35.57862]}}, {"properties": {"name": "大森町", "uri": "https://uedayou.net/jrslod/京浜急行電鉄/京急本線/大森町", "railname": "京浜急行電鉄京急本線", "door": "NULL"}, "type": "Feature", "geometry": {"type": "Point", "coordinates": [139.73219, 35.57279]}}, {"properties": {"name": "梅屋敷", "uri": "https://uedayou.net/jrslod/京浜急行電鉄/京急本線/梅屋敷", "railname": "京浜急行電鉄京急本線", "door": "NULL"}, "type": "Feature", "geometry": {"type": "Point", "coordinates": [139.72794, 35.5665]}}, {"properties": {"name": "京急蒲田", "uri": "https://uedayou.net/jrslod/京浜急行電鉄/京急本線/京急蒲田", "railname": "京浜急行電鉄京急本線", "door": "NULL"}, "type": "Feature", "geometry": {"type": "Point", "coordinates": [139.7243, 35.56163]}}, {"properties": {"name": "雑色", "uri": "https://uedayou.net/jrslod/京浜急行電鉄/京急本線/雑色", "railname": "京浜急行電鉄京急本線", "door": "NULL"}, "type": "Feature", "geometry": {"type": "Point", "coordinates": [139.71487, 35.54949]}}, {"properties": {"name": "六郷土手", "uri": "https://uedayou.net/jrslod/京浜急行電鉄/京急本線/六郷土手", "railname": "京浜急行電鉄京急本線", "door": "NULL"}, "type": "Feature", "geometry": {"type": "Point", "coordinates": [139.70732, 35.54025]}}, {"properties": {"name": "京急川崎", "uri": "https://uedayou.net/jrslod/京浜急行電鉄/京急本線/京急川崎", "railname": "京浜急行電鉄京急本線", "door": "NULL"}, "type": "Feature", "geometry": {"type": "Point", "coordinates": [139.70132, 35.53338]}}, {"properties": {"name": "八丁畷", "uri": "https://uedayou.net/jrslod/京浜急行電鉄/京急本線/八丁畷", "railname": "京浜急行電鉄京急本線", "door": "NULL"}, "type": "Feature", "geometry": {"type": "Point", "coordinates": [139.69172, 35.52331]}}, {"properties": {"name": "鶴見市場", "uri": "https://uedayou.net/jrslod/京浜急行電鉄/京急本線/鶴見市場", "railname": "京浜急行電鉄京急本線", "door": "NULL"}, "type": "Feature", "geometry": {"type": "Point", "coordinates": [139.68677, 35.51801]}}, {"properties": {"name": "京急鶴見", "uri": "https://uedayou.net/jrslod/京浜急行電鉄/京急本線/京急鶴見", "railname": "京浜急行電鉄京急本線", "door": "NULL"}, "type": "Feature", "geometry": {"type": "Point", "coordinates": [139.67743, 35.50652]}}, {"properties": {"name": "花月総持寺", "uri": "https://uedayou.net/jrslod/京浜急行電鉄/京急本線/花月総持寺", "railname": "京浜急行電鉄京急本線", "door": "NULL"}, "type": "Feature", "geometry": {"type": "Point", "coordinates": [139.6732, 35.50063]}}, {"properties": {"name": "生麦", "uri": "https://uedayou.net/jrslod/京浜急行電鉄/京急本線/生麦", "railname": "京浜急行電鉄京急本線", "door": "NULL"}, "type": "Feature", "geometry": {"type": "Point", "coordinates": [139.66691, 35.49524]}}, {"properties": {"name": "京急新子安", "uri": "https://uedayou.net/jrslod/京浜急行電鉄/京急本線/京急新子安", "railname": "京浜急行電鉄京急本線", "door": "NULL"}, "type": "Feature", "geometry": {"type": "Point", "coordinates": [139.65536, 35.48703]}}, {"properties": {"name": "子安", "uri": "https://uedayou.net/jrslod/京浜急行電鉄/京急本線/子安", "railname": "京浜急行電鉄京急本線", "door": "NULL"}, "type": "Feature", "geometry": {"type": "Point", "coordinates": [139.64488, 35.48455]}}, {"properties": {"name": "神奈川新町", "uri": "https://uedayou.net/jrslod/京浜急行電鉄/京急本線/神奈川新町", "railname": "京浜急行電鉄京急本線", "door": "NULL"}, "type": "Feature", "geometry": {"type": "Point", "coordinates": [139.64078, 35.48199]}}, {"properties": {"name": "京急東神奈川", "uri": "https://uedayou.net/jrslod/京浜急行電鉄/京急本線/京急東神奈川", "railname": "京浜急行電鉄京急本線", "door": "NULL"}, "type": "Feature", "geometry": {"type": "Point", "coordinates": [139.63444, 35.47718]}}, {"properties": {"name": "神奈川", "uri": "https://uedayou.net/jrslod/京浜急行電鉄/京急本線/神奈川", "railname": "京浜急行電鉄京急本線", "door": "NULL"}, "type": "Feature", "geometry": {"type": "Point", "coordinates": [139.62719, 35.47099]}}, {"properties": {"name": "横浜", "uri": "https://uedayou.net/jrslod/京浜急行電鉄/京急本線/横浜", "railname": "京浜急行電鉄京急本線", "door": "2019/09/01 00:00"}, "type": "Feature", "geometry": {"type": "Point", "coordinates": [139.62388, 35.46722]}}, {"properties": {"name": "戸部", "uri": "https://uedayou.net/jrslod/京浜急行電鉄/京急本線/戸部", "railname": "京浜急行電鉄京急本線", "door": "NULL"}, "type": "Feature", "geometry": {"type": "Point", "coordinates": [139.61976, 35.45619]}}, {"properties": {"name": "日ノ出町", "uri": "https://uedayou.net/jrslod/京浜急行電鉄/京急本線/日ノ出町", "railname": "京浜急行電鉄京急本線", "door": "NULL"}, "type": "Feature", "geometry": {"type": "Point", "coordinates": [139.6267, 35.44556]}}, {"properties": {"name": "黄金町", "uri": "https://uedayou.net/jrslod/京浜急行電鉄/京急本線/黄金町", "railname": "京浜急行電鉄京急本線", "door": "NULL"}, "type": "Feature", "geometry": {"type": "Point", "coordinates": [139.62315, 35.4399]}}, {"properties": {"name": "南太田", "uri": "https://uedayou.net/jrslod/京浜急行電鉄/京急本線/南太田", "railname": "京浜急行電鉄京急本線", "door": "NULL"}, "type": "Feature", "geometry": {"type": "Point", "coordinates": [139.613, 35.43679]}}, {"properties": {"name": "井土ヶ谷", "uri": "https://uedayou.net/jrslod/京浜急行電鉄/京急本線/井土ヶ谷", "railname": "京浜急行電鉄京急本線", "door": "NULL"}, "type": "Feature", "geometry": {"type": "Point", "coordinates": [139.60118, 35.43402]}}, {"properties": {"name": "弘明寺", "uri": "https://uedayou.net/jrslod/京浜急行電鉄/京急本線/弘明寺", "railname": "京浜急行電鉄京急本線", "door": "NULL"}, "type": "Feature", "geometry": {"type": "Point", "coordinates": [139.59679, 35.42449]}}, {"properties": {"name": "上大岡", "uri": "https://uedayou.net/jrslod/京浜急行電鉄/京急本線/上大岡", "railname": "京浜急行電鉄京急本線", "door": "2019/11/01 00:00"}, "type": "Feature", "geometry": {"type": "Point", "coordinates": [139.59658, 35.41026]}}, {"properties": {"name": "屏風浦", "uri": "https://uedayou.net/jrslod/京浜急行電鉄/京急本線/屏風浦", "railname": "京浜急行電鉄京急本線", "door": "NULL"}, "type": "Feature", "geometry": {"type": "Point", "coordinates": [139.60997, 35.39458]}}, {"properties": {"name": "杉田", "uri": "https://uedayou.net/jrslod/京浜急行電鉄/京急本線/杉田", "railname": "京浜急行電鉄京急本線", "door": "NULL"}, "type": "Feature", "geometry": {"type": "Point", "coordinates": [139.61581, 35.38354]}}, {"properties": {"name": "京急富岡", "uri": "https://uedayou.net/jrslod/京浜急行電鉄/京急本線/京急富岡", "railname": "京浜急行電鉄京急本線", "door": "NULL"}, "type": "Feature", "geometry": {"type": "Point", "coordinates": [139.62983, 35.36619]}}, {"properties": {"name": "能見台", "uri": "https://uedayou.net/jrslod/京浜急行電鉄/京急本線/能見台", "railname": "京浜急行電鉄京急本線", "door": "NULL"}, "type": "Feature", "geometry": {"type": "Point", "coordinates": [139.62918, 35.36041]}}, {"properties": {"name": "金沢文庫", "uri": "https://uedayou.net/jrslod/京浜急行電鉄/京急本線/金沢文庫", "railname": "京浜急行電鉄京急本線", "door": "NULL"}, "type": "Feature", "geometry": {"type": "Point", "coordinates": [139.62179, 35.3433]}}, {"properties": {"name": "金沢八景", "uri": "https://uedayou.net/jrslod/京浜急行電鉄/京急本線/金沢八景", "railname": "京浜急行電鉄京急本線", "door": "NULL"}, "type": "Feature", "geometry": {"type": "Point", "coordinates": [139.62011, 35.33179]}}, {"properties": {"name": "追浜", "uri": "https://uedayou.net/jrslod/京浜急行電鉄/京急本線/追浜", "railname": "京浜急行電鉄京急本線", "door": "NULL"}, "type": "Feature", "geometry": {"type": "Point", "coordinates": [139.62495, 35.31561]}}, {"properties": {"name": "京急田浦", "uri": "https://uedayou.net/jrslod/京浜急行電鉄/京急本線/京急田浦", "railname": "京浜急行電鉄京急本線", "door": "NULL"}, "type": "Feature", "geometry": {"type": "Point", "coordinates": [139.62525, 35.30094]}}, {"properties": {"name": "安針塚", "uri": "https://uedayou.net/jrslod/京浜急行電鉄/京急本線/安針塚", "railname": "京浜急行電鉄京急本線", "door": "NULL"}, "type": "Feature", "geometry": {"type": "Point", "coordinates": [139.64303, 35.28666]}}, {"properties": {"name": "逸見", "uri": "https://uedayou.net/jrslod/京浜急行電鉄/京急本線/逸見", "railname": "京浜急行電鉄京急本線", "door": "NULL"}, "type": "Feature", "geometry": {"type": "Point", "coordinates": [139.65253, 35.28065]}}, {"properties": {"name": "汐入", "uri": "https://uedayou.net/jrslod/京浜急行電鉄/京急本線/汐入", "railname": "京浜急行電鉄京急本線", "door": "NULL"}, "type": "Feature", "geometry": {"type": "Point", "coordinates": [139.66184, 35.28029]}}, {"properties": {"name": "横須賀中央", "uri": "https://uedayou.net/jrslod/京浜急行電鉄/京急本線/横須賀中央", "railname": "京浜急行電鉄京急本線", "door": "NULL"}, "type": "Feature", "geometry": {"type": "Point", "coordinates": [139.66995, 35.27877]}}, {"properties": {"name": "県立大学", "uri": "https://uedayou.net/jrslod/京浜急行電鉄/京急本線/県立大学", "railname": "京浜急行電鉄京急本線", "door": "NULL"}, "type": "Feature", "geometry": {"type": "Point", "coordinates": [139.67668, 35.27001]}}, {"properties": {"name": "堀ノ内", "uri": "https://uedayou.net/jrslod/京浜急行電鉄/京急本線/堀ノ内", "railname": "京浜急行電鉄京急本線", "door": "NULL"}, "type": "Feature", "geometry": {"type": "Point", "coordinates": [139.68772, 35.26279]}}, {"properties": {"name": "京急大津", "uri": "https://uedayou.net/jrslod/京浜急行電鉄/京急本線/京急大津", "railname": "京浜急行電鉄京急本線", "door": "NULL"}, "type": "Feature", "geometry": {"type": "Point", "coordinates": [139.69614, 35.26068]}}, {"properties": {"name": "馬堀海岸", "uri": "https://uedayou.net/jrslod/京浜急行電鉄/京急本線/馬堀海岸", "railname": "京浜急行電鉄京急本線", "door": "NULL"}, "type": "Feature", "geometry": {"type": "Point", "coordinates": [139.70884, 35.25954]}}, {"properties": {"name": "浦賀", "uri": "https://uedayou.net/jrslod/京浜急行電鉄/京急本線/浦賀", "railname": "京浜急行電鉄京急本線", "door": "NULL"}, "type": "Feature", "geometry": {"type": "Point", "coordinates": [139.71507, 35.2519]}}, {"properties": {"name": "泉岳寺", "uri": "https://uedayou.net/jrslod/京浜急行電鉄/京急本線/泉岳寺", "railname": "京浜急行電鉄京急本線", "door": "NULL"}, "type": "Feature", "geometry": {"type": "Point", "coordinates": [139.74008, 35.6388]}}]}