{"type": "FeatureCollection", "features": [{"properties": {"name": "千葉みなと", "uri": "https://uedayou.net/jrslod/千葉都市モノレール/1号線/千葉みなと", "railname": "千葉都市モノレール1号線", "door": "NULL"}, "type": "Feature", "geometry": {"type": "Point", "coordinates": [140.10224, 35.60762]}}, {"properties": {"name": "市役所前", "uri": "https://uedayou.net/jrslod/千葉都市モノレール/1号線/市役所前", "railname": "千葉都市モノレール1号線", "door": "NULL"}, "type": "Feature", "geometry": {"type": "Point", "coordinates": [140.10743, 35.60686]}}, {"properties": {"name": "千葉", "uri": "https://uedayou.net/jrslod/千葉都市モノレール/1号線/千葉", "railname": "千葉都市モノレール1号線", "door": "NULL"}, "type": "Feature", "geometry": {"type": "Point", "coordinates": [140.11427, 35.6124]}}, {"properties": {"name": "栄町", "uri": "https://uedayou.net/jrslod/千葉都市モノレール/1号線/栄町", "railname": "千葉都市モノレール1号線", "door": "NULL"}, "type": "Feature", "geometry": {"type": "Point", "coordinates": [140.11859, 35.61323]}}, {"properties": {"name": "葭川公園", "uri": "https://uedayou.net/jrslod/千葉都市モノレール/1号線/葭川公園", "railname": "千葉都市モノレール1号線", "door": "NULL"}, "type": "Feature", "geometry": {"type": "Point", "coordinates": [140.12007, 35.60918]}}, {"properties": {"name": "県庁前", "uri": "https://uedayou.net/jrslod/千葉都市モノレール/1号線/県庁前", "railname": "千葉都市モノレール1号線", "door": "NULL"}, "type": "Feature", "geometry": {"type": "Point", "coordinates": [140.12225, 35.60357]}}]}