{"type": "FeatureCollection", "features": [{"properties": {"name": "住吉", "uri": "https://uedayou.net/jrslod/神戸新交通/六甲アイランド線/住吉", "railname": "神戸新交通六甲アイランド線", "door": "1990/02/01 00:00"}, "type": "Feature", "geometry": {"type": "Point", "coordinates": [135.26276, 34.71954]}}, {"properties": {"name": "魚崎", "uri": "https://uedayou.net/jrslod/神戸新交通/六甲アイランド線/魚崎", "railname": "神戸新交通六甲アイランド線", "door": "1990/02/01 00:00"}, "type": "Feature", "geometry": {"type": "Point", "coordinates": [135.26865, 34.71333]}}, {"properties": {"name": "南魚崎", "uri": "https://uedayou.net/jrslod/神戸新交通/六甲アイランド線/南魚崎", "railname": "神戸新交通六甲アイランド線", "door": "1990/02/01 00:00"}, "type": "Feature", "geometry": {"type": "Point", "coordinates": [135.26743, 34.70647]}}, {"properties": {"name": "アイランド北口", "uri": "https://uedayou.net/jrslod/神戸新交通/六甲アイランド線/アイランド北口", "railname": "神戸新交通六甲アイランド線", "door": "1990/02/01 00:00"}, "type": "Feature", "geometry": {"type": "Point", "coordinates": [135.26872, 34.69297]}}, {"properties": {"name": "アイランドセンター", "uri": "https://uedayou.net/jrslod/神戸新交通/六甲アイランド線/アイランドセンター", "railname": "神戸新交通六甲アイランド線", "door": "1990/02/01 00:00"}, "type": "Feature", "geometry": {"type": "Point", "coordinates": [135.26935, 34.6888]}}, {"properties": {"name": "マリンパーク", "uri": "https://uedayou.net/jrslod/神戸新交通/六甲アイランド線/マリンパーク", "railname": "神戸新交通六甲アイランド線", "door": "1990/02/01 00:00"}, "type": "Feature", "geometry": {"type": "Point", "coordinates": [135.27015, 34.68388]}}]}