{"type": "FeatureCollection", "features": [{"properties": {"name": "猿投", "uri": "https://uedayou.net/jrslod/名古屋鉄道/名鉄三河線/猿投", "railname": "名古屋鉄道名鉄三河線", "door": "NULL"}, "type": "Feature", "geometry": {"type": "Point", "coordinates": [137.17883, 35.12204]}}, {"properties": {"name": "平戸橋", "uri": "https://uedayou.net/jrslod/名古屋鉄道/名鉄三河線/平戸橋", "railname": "名古屋鉄道名鉄三河線", "door": "NULL"}, "type": "Feature", "geometry": {"type": "Point", "coordinates": [137.18485, 35.11433]}}, {"properties": {"name": "越戸", "uri": "https://uedayou.net/jrslod/名古屋鉄道/名鉄三河線/越戸", "railname": "名古屋鉄道名鉄三河線", "door": "NULL"}, "type": "Feature", "geometry": {"type": "Point", "coordinates": [137.18051, 35.10772]}}, {"properties": {"name": "梅坪", "uri": "https://uedayou.net/jrslod/名古屋鉄道/名鉄三河線/梅坪", "railname": "名古屋鉄道名鉄三河線", "door": "NULL"}, "type": "Feature", "geometry": {"type": "Point", "coordinates": [137.16259, 35.10021]}}, {"properties": {"name": "豊田市", "uri": "https://uedayou.net/jrslod/名古屋鉄道/名鉄三河線/豊田市", "railname": "名古屋鉄道名鉄三河線", "door": "NULL"}, "type": "Feature", "geometry": {"type": "Point", "coordinates": [137.15603, 35.08673]}}, {"properties": {"name": "上挙母", "uri": "https://uedayou.net/jrslod/名古屋鉄道/名鉄三河線/上挙母", "railname": "名古屋鉄道名鉄三河線", "door": "NULL"}, "type": "Feature", "geometry": {"type": "Point", "coordinates": [137.15498, 35.07214]}}, {"properties": {"name": "土橋", "uri": "https://uedayou.net/jrslod/名古屋鉄道/名鉄三河線/土橋", "railname": "名古屋鉄道名鉄三河線", "door": "NULL"}, "type": "Feature", "geometry": {"type": "Point", "coordinates": [137.12872, 35.05789]}}, {"properties": {"name": "竹村", "uri": "https://uedayou.net/jrslod/名古屋鉄道/名鉄三河線/竹村", "railname": "名古屋鉄道名鉄三河線", "door": "NULL"}, "type": "Feature", "geometry": {"type": "Point", "coordinates": [137.11502, 35.04028]}}, {"properties": {"name": "若林", "uri": "https://uedayou.net/jrslod/名古屋鉄道/名鉄三河線/若林", "railname": "名古屋鉄道名鉄三河線", "door": "NULL"}, "type": "Feature", "geometry": {"type": "Point", "coordinates": [137.09617, 35.0265]}}, {"properties": {"name": "三河八橋", "uri": "https://uedayou.net/jrslod/名古屋鉄道/名鉄三河線/三河八橋", "railname": "名古屋鉄道名鉄三河線", "door": "NULL"}, "type": "Feature", "geometry": {"type": "Point", "coordinates": [137.07753, 35.01124]}}, {"properties": {"name": "三河知立", "uri": "https://uedayou.net/jrslod/名古屋鉄道/名鉄三河線/三河知立", "railname": "名古屋鉄道名鉄三河線", "door": "NULL"}, "type": "Feature", "geometry": {"type": "Point", "coordinates": [137.04573, 35.00407]}}, {"properties": {"name": "知立", "uri": "https://uedayou.net/jrslod/名古屋鉄道/名鉄三河線/知立", "railname": "名古屋鉄道名鉄三河線", "door": "NULL"}, "type": "Feature", "geometry": {"type": "Point", "coordinates": [137.04009, 35.00597]}}, {"properties": {"name": "重原", "uri": "https://uedayou.net/jrslod/名古屋鉄道/名鉄三河線/重原", "railname": "名古屋鉄道名鉄三河線", "door": "NULL"}, "type": "Feature", "geometry": {"type": "Point", "coordinates": [137.02408, 34.99506]}}, {"properties": {"name": "刈谷", "uri": "https://uedayou.net/jrslod/名古屋鉄道/名鉄三河線/刈谷", "railname": "名古屋鉄道名鉄三河線", "door": "NULL"}, "type": "Feature", "geometry": {"type": "Point", "coordinates": [137.00837, 34.99087]}}, {"properties": {"name": "刈谷市", "uri": "https://uedayou.net/jrslod/名古屋鉄道/名鉄三河線/刈谷市", "railname": "名古屋鉄道名鉄三河線", "door": "NULL"}, "type": "Feature", "geometry": {"type": "Point", "coordinates": [136.99391, 34.98468]}}, {"properties": {"name": "小垣江", "uri": "https://uedayou.net/jrslod/名古屋鉄道/名鉄三河線/小垣江", "railname": "名古屋鉄道名鉄三河線", "door": "NULL"}, "type": "Feature", "geometry": {"type": "Point", "coordinates": [136.99572, 34.96418]}}, {"properties": {"name": "吉浜", "uri": "https://uedayou.net/jrslod/名古屋鉄道/名鉄三河線/吉浜", "railname": "名古屋鉄道名鉄三河線", "door": "NULL"}, "type": "Feature", "geometry": {"type": "Point", "coordinates": [136.98976, 34.94708]}}, {"properties": {"name": "三河高浜", "uri": "https://uedayou.net/jrslod/名古屋鉄道/名鉄三河線/三河高浜", "railname": "名古屋鉄道名鉄三河線", "door": "NULL"}, "type": "Feature", "geometry": {"type": "Point", "coordinates": [136.98982, 34.93116]}}, {"properties": {"name": "高浜港", "uri": "https://uedayou.net/jrslod/名古屋鉄道/名鉄三河線/高浜港", "railname": "名古屋鉄道名鉄三河線", "door": "NULL"}, "type": "Feature", "geometry": {"type": "Point", "coordinates": [136.98944, 34.92188]}}, {"properties": {"name": "北新川", "uri": "https://uedayou.net/jrslod/名古屋鉄道/名鉄三河線/北新川", "railname": "名古屋鉄道名鉄三河線", "door": "NULL"}, "type": "Feature", "geometry": {"type": "Point", "coordinates": [136.99238, 34.9064]}}, {"properties": {"name": "新川町", "uri": "https://uedayou.net/jrslod/名古屋鉄道/名鉄三河線/新川町", "railname": "名古屋鉄道名鉄三河線", "door": "NULL"}, "type": "Feature", "geometry": {"type": "Point", "coordinates": [136.99042, 34.89692]}}, {"properties": {"name": "碧南中央", "uri": "https://uedayou.net/jrslod/名古屋鉄道/名鉄三河線/碧南中央", "railname": "名古屋鉄道名鉄三河線", "door": "NULL"}, "type": "Feature", "geometry": {"type": "Point", "coordinates": [136.98945, 34.88765]}}, {"properties": {"name": "碧南", "uri": "https://uedayou.net/jrslod/名古屋鉄道/名鉄三河線/碧南", "railname": "名古屋鉄道名鉄三河線", "door": "NULL"}, "type": "Feature", "geometry": {"type": "Point", "coordinates": [136.98568, 34.87448]}}]}