{"type": "FeatureCollection", "features": [{"properties": {"name": "吉良吉田", "uri": "https://uedayou.net/jrslod/名古屋鉄道/名鉄蒲郡線/吉良吉田", "railname": "名古屋鉄道名鉄蒲郡線", "door": "NULL"}, "type": "Feature", "geometry": {"type": "Point", "coordinates": [137.07125, 34.79425]}}, {"properties": {"name": "三河鳥羽", "uri": "https://uedayou.net/jrslod/名古屋鉄道/名鉄蒲郡線/三河鳥羽", "railname": "名古屋鉄道名鉄蒲郡線", "door": "NULL"}, "type": "Feature", "geometry": {"type": "Point", "coordinates": [137.10547, 34.79325]}}, {"properties": {"name": "西幡豆", "uri": "https://uedayou.net/jrslod/名古屋鉄道/名鉄蒲郡線/西幡豆", "railname": "名古屋鉄道名鉄蒲郡線", "door": "NULL"}, "type": "Feature", "geometry": {"type": "Point", "coordinates": [137.12176, 34.79243]}}, {"properties": {"name": "東幡豆", "uri": "https://uedayou.net/jrslod/名古屋鉄道/名鉄蒲郡線/東幡豆", "railname": "名古屋鉄道名鉄蒲郡線", "door": "NULL"}, "type": "Feature", "geometry": {"type": "Point", "coordinates": [137.14636, 34.78955]}}, {"properties": {"name": "こどもの国", "uri": "https://uedayou.net/jrslod/名古屋鉄道/名鉄蒲郡線/こどもの国", "railname": "名古屋鉄道名鉄蒲郡線", "door": "NULL"}, "type": "Feature", "geometry": {"type": "Point", "coordinates": [137.16223, 34.78849]}}, {"properties": {"name": "西浦", "uri": "https://uedayou.net/jrslod/名古屋鉄道/名鉄蒲郡線/西浦", "railname": "名古屋鉄道名鉄蒲郡線", "door": "NULL"}, "type": "Feature", "geometry": {"type": "Point", "coordinates": [137.17842, 34.78968]}}, {"properties": {"name": "形原", "uri": "https://uedayou.net/jrslod/名古屋鉄道/名鉄蒲郡線/形原", "railname": "名古屋鉄道名鉄蒲郡線", "door": "NULL"}, "type": "Feature", "geometry": {"type": "Point", "coordinates": [137.18462, 34.79871]}}, {"properties": {"name": "三河鹿島", "uri": "https://uedayou.net/jrslod/名古屋鉄道/名鉄蒲郡線/三河鹿島", "railname": "名古屋鉄道名鉄蒲郡線", "door": "NULL"}, "type": "Feature", "geometry": {"type": "Point", "coordinates": [137.18967, 34.81328]}}, {"properties": {"name": "蒲郡競艇場前", "uri": "https://uedayou.net/jrslod/名古屋鉄道/名鉄蒲郡線/蒲郡競艇場前", "railname": "名古屋鉄道名鉄蒲郡線", "door": "NULL"}, "type": "Feature", "geometry": {"type": "Point", "coordinates": [137.20183, 34.82529]}}, {"properties": {"name": "蒲郡", "uri": "https://uedayou.net/jrslod/名古屋鉄道/名鉄蒲郡線/蒲郡", "railname": "名古屋鉄道名鉄蒲郡線", "door": "NULL"}, "type": "Feature", "geometry": {"type": "Point", "coordinates": [137.22566, 34.82277]}}]}