{"type": "FeatureCollection", "features": [{"properties": {"name": "立野", "uri": "https://uedayou.net/jrslod/南阿蘇鉄道/高森線/立野", "railname": "南阿蘇鉄道高森線", "door": "NULL"}, "type": "Feature", "geometry": {"type": "Point", "coordinates": [130.96577, 32.87734]}}, {"properties": {"name": "長陽", "uri": "https://uedayou.net/jrslod/南阿蘇鉄道/高森線/長陽", "railname": "南阿蘇鉄道高森線", "door": "NULL"}, "type": "Feature", "geometry": {"type": "Point", "coordinates": [131.00435, 32.854]}}, {"properties": {"name": "加勢", "uri": "https://uedayou.net/jrslod/南阿蘇鉄道/高森線/加勢", "railname": "南阿蘇鉄道高森線", "door": "NULL"}, "type": "Feature", "geometry": {"type": "Point", "coordinates": [131.01022, 32.84748]}}, {"properties": {"name": "阿蘇下田城ふれあい温泉", "uri": "https://uedayou.net/jrslod/南阿蘇鉄道/高森線/阿蘇下田城ふれあい温泉", "railname": "南阿蘇鉄道高森線", "door": "NULL"}, "type": "Feature", "geometry": {"type": "Point", "coordinates": [131.02459, 32.84435]}}, {"properties": {"name": "南阿蘇水の生まれる里白水高原", "uri": "https://uedayou.net/jrslod/南阿蘇鉄道/高森線/南阿蘇水の生まれる里白水高原", "railname": "南阿蘇鉄道高森線", "door": "NULL"}, "type": "Feature", "geometry": {"type": "Point", "coordinates": [131.03981, 32.83446]}}, {"properties": {"name": "中松", "uri": "https://uedayou.net/jrslod/南阿蘇鉄道/高森線/中松", "railname": "南阿蘇鉄道高森線", "door": "NULL"}, "type": "Feature", "geometry": {"type": "Point", "coordinates": [131.05327, 32.82752]}}, {"properties": {"name": "阿蘇白川", "uri": "https://uedayou.net/jrslod/南阿蘇鉄道/高森線/阿蘇白川", "railname": "南阿蘇鉄道高森線", "door": "NULL"}, "type": "Feature", "geometry": {"type": "Point", "coordinates": [131.08392, 32.82234]}}, {"properties": {"name": "南阿蘇白川水源", "uri": "https://uedayou.net/jrslod/南阿蘇鉄道/高森線/南阿蘇白川水源", "railname": "南阿蘇鉄道高森線", "door": "NULL"}, "type": "Feature", "geometry": {"type": "Point", "coordinates": [131.090902, 32.822201]}}, {"properties": {"name": "見晴台", "uri": "https://uedayou.net/jrslod/南阿蘇鉄道/高森線/見晴台", "railname": "南阿蘇鉄道高森線", "door": "NULL"}, "type": "Feature", "geometry": {"type": "Point", "coordinates": [131.11008, 32.81743]}}, {"properties": {"name": "高森", "uri": "https://uedayou.net/jrslod/南阿蘇鉄道/高森線/高森", "railname": "南阿蘇鉄道高森線", "door": "NULL"}, "type": "Feature", "geometry": {"type": "Point", "coordinates": [131.12247, 32.81904]}}]}