{"type": "FeatureCollection", "features": [{"properties": {"name": "高岡駅", "uri": "https://uedayou.net/jrslod/万葉線/高岡軌道線/高岡駅", "railname": "万葉線高岡軌道線", "door": "NULL"}, "type": "Feature", "geometry": {"type": "Point", "coordinates": [137.015185, 36.741547]}}, {"properties": {"name": "末広町", "uri": "https://uedayou.net/jrslod/万葉線/高岡軌道線/末広町", "railname": "万葉線高岡軌道線", "door": "NULL"}, "type": "Feature", "geometry": {"type": "Point", "coordinates": [137.01329, 36.74466]}}, {"properties": {"name": "片原町", "uri": "https://uedayou.net/jrslod/万葉線/高岡軌道線/片原町", "railname": "万葉線高岡軌道線", "door": "NULL"}, "type": "Feature", "geometry": {"type": "Point", "coordinates": [137.01292, 36.74631]}}, {"properties": {"name": "坂下町", "uri": "https://uedayou.net/jrslod/万葉線/高岡軌道線/坂下町", "railname": "万葉線高岡軌道線", "door": "NULL"}, "type": "Feature", "geometry": {"type": "Point", "coordinates": [137.01485, 36.7474]}}, {"properties": {"name": "急患医療センター前", "uri": "https://uedayou.net/jrslod/万葉線/高岡軌道線/急患医療センター前", "railname": "万葉線高岡軌道線", "door": "NULL"}, "type": "Feature", "geometry": {"type": "Point", "coordinates": [137.01812, 36.74998]}}, {"properties": {"name": "広小路", "uri": "https://uedayou.net/jrslod/万葉線/高岡軌道線/広小路", "railname": "万葉線高岡軌道線", "door": "NULL"}, "type": "Feature", "geometry": {"type": "Point", "coordinates": [137.02069, 36.75251]}}, {"properties": {"name": "志貴野中学校前", "uri": "https://uedayou.net/jrslod/万葉線/高岡軌道線/志貴野中学校前", "railname": "万葉線高岡軌道線", "door": "NULL"}, "type": "Feature", "geometry": {"type": "Point", "coordinates": [137.02365, 36.75543]}}, {"properties": {"name": "市民病院前", "uri": "https://uedayou.net/jrslod/万葉線/高岡軌道線/市民病院前", "railname": "万葉線高岡軌道線", "door": "NULL"}, "type": "Feature", "geometry": {"type": "Point", "coordinates": [137.0264, 36.75839]}}, {"properties": {"name": "江尻", "uri": "https://uedayou.net/jrslod/万葉線/高岡軌道線/江尻", "railname": "万葉線高岡軌道線", "door": "NULL"}, "type": "Feature", "geometry": {"type": "Point", "coordinates": [137.02968, 36.76133]}}, {"properties": {"name": "旭ヶ丘", "uri": "https://uedayou.net/jrslod/万葉線/高岡軌道線/旭ヶ丘", "railname": "万葉線高岡軌道線", "door": "NULL"}, "type": "Feature", "geometry": {"type": "Point", "coordinates": [137.03204, 36.76345]}}, {"properties": {"name": "荻布", "uri": "https://uedayou.net/jrslod/万葉線/高岡軌道線/荻布", "railname": "万葉線高岡軌道線", "door": "NULL"}, "type": "Feature", "geometry": {"type": "Point", "coordinates": [137.03559, 36.76665]}}, {"properties": {"name": "新能町", "uri": "https://uedayou.net/jrslod/万葉線/高岡軌道線/新能町", "railname": "万葉線高岡軌道線", "door": "NULL"}, "type": "Feature", "geometry": {"type": "Point", "coordinates": [137.03789, 36.77046]}}, {"properties": {"name": "米島口", "uri": "https://uedayou.net/jrslod/万葉線/高岡軌道線/米島口", "railname": "万葉線高岡軌道線", "door": "NULL"}, "type": "Feature", "geometry": {"type": "Point", "coordinates": [137.03856, 36.77225]}}, {"properties": {"name": "能町口", "uri": "https://uedayou.net/jrslod/万葉線/高岡軌道線/能町口", "railname": "万葉線高岡軌道線", "door": "NULL"}, "type": "Feature", "geometry": {"type": "Point", "coordinates": [137.04909, 36.77317]}}, {"properties": {"name": "新吉久", "uri": "https://uedayou.net/jrslod/万葉線/高岡軌道線/新吉久", "railname": "万葉線高岡軌道線", "door": "NULL"}, "type": "Feature", "geometry": {"type": "Point", "coordinates": [137.05288, 36.77598]}}, {"properties": {"name": "吉久", "uri": "https://uedayou.net/jrslod/万葉線/高岡軌道線/吉久", "railname": "万葉線高岡軌道線", "door": "NULL"}, "type": "Feature", "geometry": {"type": "Point", "coordinates": [137.05618, 36.78166]}}, {"properties": {"name": "中伏木", "uri": "https://uedayou.net/jrslod/万葉線/高岡軌道線/中伏木", "railname": "万葉線高岡軌道線", "door": "NULL"}, "type": "Feature", "geometry": {"type": "Point", "coordinates": [137.06168, 36.78814]}}, {"properties": {"name": "六渡寺", "uri": "https://uedayou.net/jrslod/万葉線/高岡軌道線/六渡寺", "railname": "万葉線高岡軌道線", "door": "NULL"}, "type": "Feature", "geometry": {"type": "Point", "coordinates": [137.06566, 36.78897]}}]}