{"type": "FeatureCollection", "features": [{"properties": {"name": "松山市", "uri": "https://uedayou.net/jrslod/伊予鉄道/横河原線/松山市", "railname": "伊予鉄道横河原線", "door": "NULL"}, "type": "Feature", "geometry": {"type": "Point", "coordinates": [132.76143, 33.8357]}}, {"properties": {"name": "石手川公園", "uri": "https://uedayou.net/jrslod/伊予鉄道/横河原線/石手川公園", "railname": "伊予鉄道横河原線", "door": "NULL"}, "type": "Feature", "geometry": {"type": "Point", "coordinates": [132.76905, 33.83163]}}, {"properties": {"name": "いよ立花", "uri": "https://uedayou.net/jrslod/伊予鉄道/横河原線/いよ立花", "railname": "伊予鉄道横河原線", "door": "NULL"}, "type": "Feature", "geometry": {"type": "Point", "coordinates": [132.77258, 33.82799]}}, {"properties": {"name": "福音寺", "uri": "https://uedayou.net/jrslod/伊予鉄道/横河原線/福音寺", "railname": "伊予鉄道横河原線", "door": "NULL"}, "type": "Feature", "geometry": {"type": "Point", "coordinates": [132.78929, 33.82241]}}, {"properties": {"name": "北久米", "uri": "https://uedayou.net/jrslod/伊予鉄道/横河原線/北久米", "railname": "伊予鉄道横河原線", "door": "NULL"}, "type": "Feature", "geometry": {"type": "Point", "coordinates": [132.79827, 33.81941]}}, {"properties": {"name": "久米", "uri": "https://uedayou.net/jrslod/伊予鉄道/横河原線/久米", "railname": "伊予鉄道横河原線", "door": "NULL"}, "type": "Feature", "geometry": {"type": "Point", "coordinates": [132.80429, 33.81599]}}, {"properties": {"name": "鷹ノ子", "uri": "https://uedayou.net/jrslod/伊予鉄道/横河原線/鷹ノ子", "railname": "伊予鉄道横河原線", "door": "NULL"}, "type": "Feature", "geometry": {"type": "Point", "coordinates": [132.81573, 33.81242]}}, {"properties": {"name": "平井", "uri": "https://uedayou.net/jrslod/伊予鉄道/横河原線/平井", "railname": "伊予鉄道横河原線", "door": "NULL"}, "type": "Feature", "geometry": {"type": "Point", "coordinates": [132.82909, 33.80859]}}, {"properties": {"name": "梅本", "uri": "https://uedayou.net/jrslod/伊予鉄道/横河原線/梅本", "railname": "伊予鉄道横河原線", "door": "NULL"}, "type": "Feature", "geometry": {"type": "Point", "coordinates": [132.8387, 33.8014]}}, {"properties": {"name": "牛渕団地前", "uri": "https://uedayou.net/jrslod/伊予鉄道/横河原線/牛渕団地前", "railname": "伊予鉄道横河原線", "door": "NULL"}, "type": "Feature", "geometry": {"type": "Point", "coordinates": [132.84588, 33.79781]}}, {"properties": {"name": "牛渕", "uri": "https://uedayou.net/jrslod/伊予鉄道/横河原線/牛渕", "railname": "伊予鉄道横河原線", "door": "NULL"}, "type": "Feature", "geometry": {"type": "Point", "coordinates": [132.8566, 33.7951]}}, {"properties": {"name": "田窪", "uri": "https://uedayou.net/jrslod/伊予鉄道/横河原線/田窪", "railname": "伊予鉄道横河原線", "door": "NULL"}, "type": "Feature", "geometry": {"type": "Point", "coordinates": [132.86616, 33.79263]}}, {"properties": {"name": "見奈良", "uri": "https://uedayou.net/jrslod/伊予鉄道/横河原線/見奈良", "railname": "伊予鉄道横河原線", "door": "NULL"}, "type": "Feature", "geometry": {"type": "Point", "coordinates": [132.8737, 33.79305]}}, {"properties": {"name": "愛大医学部南口", "uri": "https://uedayou.net/jrslod/伊予鉄道/横河原線/愛大医学部南口", "railname": "伊予鉄道横河原線", "door": "NULL"}, "type": "Feature", "geometry": {"type": "Point", "coordinates": [132.87921, 33.79835]}}, {"properties": {"name": "横河原", "uri": "https://uedayou.net/jrslod/伊予鉄道/横河原線/横河原", "railname": "伊予鉄道横河原線", "door": "NULL"}, "type": "Feature", "geometry": {"type": "Point", "coordinates": [132.88448, 33.80368]}}]}