{"type": "FeatureCollection", "features": [{"properties": {"name": "相模大野", "uri": "https://uedayou.net/jrslod/小田急電鉄/小田急江ノ島線/相模大野", "railname": "小田急電鉄小田急江ノ島線", "door": "NULL"}, "type": "Feature", "geometry": {"type": "Point", "coordinates": [139.43698, 35.53111]}}, {"properties": {"name": "東林間", "uri": "https://uedayou.net/jrslod/小田急電鉄/小田急江ノ島線/東林間", "railname": "小田急電鉄小田急江ノ島線", "door": "NULL"}, "type": "Feature", "geometry": {"type": "Point", "coordinates": [139.43902, 35.5202]}}, {"properties": {"name": "中央林間", "uri": "https://uedayou.net/jrslod/小田急電鉄/小田急江ノ島線/中央林間", "railname": "小田急電鉄小田急江ノ島線", "door": "NULL"}, "type": "Feature", "geometry": {"type": "Point", "coordinates": [139.44408, 35.50863]}}, {"properties": {"name": "南林間", "uri": "https://uedayou.net/jrslod/小田急電鉄/小田急江ノ島線/南林間", "railname": "小田急電鉄小田急江ノ島線", "door": "NULL"}, "type": "Feature", "geometry": {"type": "Point", "coordinates": [139.44832, 35.49499]}}, {"properties": {"name": "鶴間", "uri": "https://uedayou.net/jrslod/小田急電鉄/小田急江ノ島線/鶴間", "railname": "小田急電鉄小田急江ノ島線", "door": "NULL"}, "type": "Feature", "geometry": {"type": "Point", "coordinates": [139.4503, 35.49123]}}, {"properties": {"name": "大和", "uri": "https://uedayou.net/jrslod/小田急電鉄/小田急江ノ島線/大和", "railname": "小田急電鉄小田急江ノ島線", "door": "NULL"}, "type": "Feature", "geometry": {"type": "Point", "coordinates": [139.46153, 35.46972]}}, {"properties": {"name": "桜ヶ丘", "uri": "https://uedayou.net/jrslod/小田急電鉄/小田急江ノ島線/桜ヶ丘", "railname": "小田急電鉄小田急江ノ島線", "door": "NULL"}, "type": "Feature", "geometry": {"type": "Point", "coordinates": [139.4657, 35.45]}}, {"properties": {"name": "高座渋谷", "uri": "https://uedayou.net/jrslod/小田急電鉄/小田急江ノ島線/高座渋谷", "railname": "小田急電鉄小田急江ノ島線", "door": "NULL"}, "type": "Feature", "geometry": {"type": "Point", "coordinates": [139.4647, 35.43159]}}, {"properties": {"name": "長後", "uri": "https://uedayou.net/jrslod/小田急電鉄/小田急江ノ島線/長後", "railname": "小田急電鉄小田急江ノ島線", "door": "NULL"}, "type": "Feature", "geometry": {"type": "Point", "coordinates": [139.46538, 35.4128]}}, {"properties": {"name": "湘南台", "uri": "https://uedayou.net/jrslod/小田急電鉄/小田急江ノ島線/湘南台", "railname": "小田急電鉄小田急江ノ島線", "door": "NULL"}, "type": "Feature", "geometry": {"type": "Point", "coordinates": [139.46662, 35.39608]}}, {"properties": {"name": "六会日大前", "uri": "https://uedayou.net/jrslod/小田急電鉄/小田急江ノ島線/六会日大前", "railname": "小田急電鉄小田急江ノ島線", "door": "NULL"}, "type": "Feature", "geometry": {"type": "Point", "coordinates": [139.47061, 35.38412]}}, {"properties": {"name": "善行", "uri": "https://uedayou.net/jrslod/小田急電鉄/小田急江ノ島線/善行", "railname": "小田急電鉄小田急江ノ島線", "door": "NULL"}, "type": "Feature", "geometry": {"type": "Point", "coordinates": [139.47329, 35.36225]}}, {"properties": {"name": "藤沢本町", "uri": "https://uedayou.net/jrslod/小田急電鉄/小田急江ノ島線/藤沢本町", "railname": "小田急電鉄小田急江ノ島線", "door": "NULL"}, "type": "Feature", "geometry": {"type": "Point", "coordinates": [139.47566, 35.34854]}}, {"properties": {"name": "藤沢", "uri": "https://uedayou.net/jrslod/小田急電鉄/小田急江ノ島線/藤沢", "railname": "小田急電鉄小田急江ノ島線", "door": "NULL"}, "type": "Feature", "geometry": {"type": "Point", "coordinates": [139.4864, 35.33858]}}, {"properties": {"name": "本鵠沼", "uri": "https://uedayou.net/jrslod/小田急電鉄/小田急江ノ島線/本鵠沼", "railname": "小田急電鉄小田急江ノ島線", "door": "NULL"}, "type": "Feature", "geometry": {"type": "Point", "coordinates": [139.47561, 35.33134]}}, {"properties": {"name": "鵠沼海岸", "uri": "https://uedayou.net/jrslod/小田急電鉄/小田急江ノ島線/鵠沼海岸", "railname": "小田急電鉄小田急江ノ島線", "door": "NULL"}, "type": "Feature", "geometry": {"type": "Point", "coordinates": [139.47144, 35.3204]}}, {"properties": {"name": "片瀬江ノ島", "uri": "https://uedayou.net/jrslod/小田急電鉄/小田急江ノ島線/片瀬江ノ島", "railname": "小田急電鉄小田急江ノ島線", "door": "NULL"}, "type": "Feature", "geometry": {"type": "Point", "coordinates": [139.4835, 35.30887]}}]}