{"type": "FeatureCollection", "features": [{"properties": {"name": "貝塚", "uri": "https://uedayou.net/jrslod/水間鉄道/水間線/貝塚", "railname": "水間鉄道水間線", "door": "NULL"}, "type": "Feature", "geometry": {"type": "Point", "coordinates": [135.35819, 34.44555]}}, {"properties": {"name": "貝塚市役所前", "uri": "https://uedayou.net/jrslod/水間鉄道/水間線/貝塚市役所前", "railname": "水間鉄道水間線", "door": "NULL"}, "type": "Feature", "geometry": {"type": "Point", "coordinates": [135.36041, 34.43968]}}, {"properties": {"name": "近義の里", "uri": "https://uedayou.net/jrslod/水間鉄道/水間線/近義の里", "railname": "水間鉄道水間線", "door": "NULL"}, "type": "Feature", "geometry": {"type": "Point", "coordinates": [135.36267, 34.43718]}}, {"properties": {"name": "石才", "uri": "https://uedayou.net/jrslod/水間鉄道/水間線/石才", "railname": "水間鉄道水間線", "door": "NULL"}, "type": "Feature", "geometry": {"type": "Point", "coordinates": [135.36794, 34.43088]}}, {"properties": {"name": "清児", "uri": "https://uedayou.net/jrslod/水間鉄道/水間線/清児", "railname": "水間鉄道水間線", "door": "NULL"}, "type": "Feature", "geometry": {"type": "Point", "coordinates": [135.37221, 34.42503]}}, {"properties": {"name": "名越", "uri": "https://uedayou.net/jrslod/水間鉄道/水間線/名越", "railname": "水間鉄道水間線", "door": "NULL"}, "type": "Feature", "geometry": {"type": "Point", "coordinates": [135.37474, 34.4216]}}, {"properties": {"name": "森", "uri": "https://uedayou.net/jrslod/水間鉄道/水間線/森", "railname": "水間鉄道水間線", "door": "NULL"}, "type": "Feature", "geometry": {"type": "Point", "coordinates": [135.38203, 34.41387]}}, {"properties": {"name": "三ツ松", "uri": "https://uedayou.net/jrslod/水間鉄道/水間線/三ツ松", "railname": "水間鉄道水間線", "door": "NULL"}, "type": "Feature", "geometry": {"type": "Point", "coordinates": [135.38355, 34.41071]}}, {"properties": {"name": "三ヶ山口", "uri": "https://uedayou.net/jrslod/水間鉄道/水間線/三ヶ山口", "railname": "水間鉄道水間線", "door": "NULL"}, "type": "Feature", "geometry": {"type": "Point", "coordinates": [135.38495, 34.4075]}}, {"properties": {"name": "水間観音", "uri": "https://uedayou.net/jrslod/水間鉄道/水間線/水間観音", "railname": "水間鉄道水間線", "door": "NULL"}, "type": "Feature", "geometry": {"type": "Point", "coordinates": [135.38552, 34.40384]}}]}