{"type": "FeatureCollection", "features": [{"properties": {"name": "大船", "uri": "https://uedayou.net/jrslod/湘南モノレール/江の島線/大船", "railname": "湘南モノレール江の島線", "door": "NULL"}, "type": "Feature", "geometry": {"type": "Point", "coordinates": [139.53143, 35.35264]}}, {"properties": {"name": "富士見町", "uri": "https://uedayou.net/jrslod/湘南モノレール/江の島線/富士見町", "railname": "湘南モノレール江の島線", "door": "NULL"}, "type": "Feature", "geometry": {"type": "Point", "coordinates": [139.52907, 35.34508]}}, {"properties": {"name": "湘南町屋", "uri": "https://uedayou.net/jrslod/湘南モノレール/江の島線/湘南町屋", "railname": "湘南モノレール江の島線", "door": "NULL"}, "type": "Feature", "geometry": {"type": "Point", "coordinates": [139.52275, 35.33816]}}, {"properties": {"name": "湘南深沢", "uri": "https://uedayou.net/jrslod/湘南モノレール/江の島線/湘南深沢", "railname": "湘南モノレール江の島線", "door": "NULL"}, "type": "Feature", "geometry": {"type": "Point", "coordinates": [139.51911, 35.33316]}}, {"properties": {"name": "西鎌倉", "uri": "https://uedayou.net/jrslod/湘南モノレール/江の島線/西鎌倉", "railname": "湘南モノレール江の島線", "door": "NULL"}, "type": "Feature", "geometry": {"type": "Point", "coordinates": [139.50425, 35.31937]}}, {"properties": {"name": "片瀬山", "uri": "https://uedayou.net/jrslod/湘南モノレール/江の島線/片瀬山", "railname": "湘南モノレール江の島線", "door": "NULL"}, "type": "Feature", "geometry": {"type": "Point", "coordinates": [139.49654, 35.31729]}}, {"properties": {"name": "目白山下", "uri": "https://uedayou.net/jrslod/湘南モノレール/江の島線/目白山下", "railname": "湘南モノレール江の島線", "door": "NULL"}, "type": "Feature", "geometry": {"type": "Point", "coordinates": [139.49125, 35.31392]}}, {"properties": {"name": "湘南江の島", "uri": "https://uedayou.net/jrslod/湘南モノレール/江の島線/湘南江の島", "railname": "湘南モノレール江の島線", "door": "NULL"}, "type": "Feature", "geometry": {"type": "Point", "coordinates": [139.48801, 35.31202]}}]}