{"type": "FeatureCollection", "features": [{"properties": {"name": "飾磨", "uri": "https://uedayou.net/jrslod/山陽電気鉄道/網干線/飾磨", "railname": "山陽電気鉄道網干線", "door": "NULL"}, "type": "Feature", "geometry": {"type": "Point", "coordinates": [134.67512, 34.79983]}}, {"properties": {"name": "西飾磨", "uri": "https://uedayou.net/jrslod/山陽電気鉄道/網干線/西飾磨", "railname": "山陽電気鉄道網干線", "door": "NULL"}, "type": "Feature", "geometry": {"type": "Point", "coordinates": [134.65079, 34.80288]}}, {"properties": {"name": "夢前川", "uri": "https://uedayou.net/jrslod/山陽電気鉄道/網干線/夢前川", "railname": "山陽電気鉄道網干線", "door": "NULL"}, "type": "Feature", "geometry": {"type": "Point", "coordinates": [134.63894, 34.79829]}}, {"properties": {"name": "広畑", "uri": "https://uedayou.net/jrslod/山陽電気鉄道/網干線/広畑", "railname": "山陽電気鉄道網干線", "door": "NULL"}, "type": "Feature", "geometry": {"type": "Point", "coordinates": [134.62798, 34.7979]}}, {"properties": {"name": "山陽天満", "uri": "https://uedayou.net/jrslod/山陽電気鉄道/網干線/山陽天満", "railname": "山陽電気鉄道網干線", "door": "NULL"}, "type": "Feature", "geometry": {"type": "Point", "coordinates": [134.61707, 34.79625]}}, {"properties": {"name": "平松", "uri": "https://uedayou.net/jrslod/山陽電気鉄道/網干線/平松", "railname": "山陽電気鉄道網干線", "door": "NULL"}, "type": "Feature", "geometry": {"type": "Point", "coordinates": [134.60066, 34.7906]}}, {"properties": {"name": "山陽網干", "uri": "https://uedayou.net/jrslod/山陽電気鉄道/網干線/山陽網干", "railname": "山陽電気鉄道網干線", "door": "NULL"}, "type": "Feature", "geometry": {"type": "Point", "coordinates": [134.58778, 34.78674]}}]}