{"type": "FeatureCollection", "features": [{"properties": {"name": "広電西広島（己斐）", "uri": "https://uedayou.net/jrslod/広島電鉄/宮島線/広電西広島（己斐）", "railname": "広島電鉄宮島線", "door": "NULL"}, "type": "Feature", "geometry": {"type": "Point", "coordinates": [132.428027, 34.396879]}}, {"properties": {"name": "東高須", "uri": "https://uedayou.net/jrslod/広島電鉄/宮島線/東高須", "railname": "広島電鉄宮島線", "door": "NULL"}, "type": "Feature", "geometry": {"type": "Point", "coordinates": [132.42049, 34.392]}}, {"properties": {"name": "高須", "uri": "https://uedayou.net/jrslod/広島電鉄/宮島線/高須", "railname": "広島電鉄宮島線", "door": "NULL"}, "type": "Feature", "geometry": {"type": "Point", "coordinates": [132.417, 34.38968]}}, {"properties": {"name": "古江", "uri": "https://uedayou.net/jrslod/広島電鉄/宮島線/古江", "railname": "広島電鉄宮島線", "door": "NULL"}, "type": "Feature", "geometry": {"type": "Point", "coordinates": [132.41153, 34.38626]}}, {"properties": {"name": "草津", "uri": "https://uedayou.net/jrslod/広島電鉄/宮島線/草津", "railname": "広島電鉄宮島線", "door": "NULL"}, "type": "Feature", "geometry": {"type": "Point", "coordinates": [132.40424, 34.38169]}}, {"properties": {"name": "草津南", "uri": "https://uedayou.net/jrslod/広島電鉄/宮島線/草津南", "railname": "広島電鉄宮島線", "door": "NULL"}, "type": "Feature", "geometry": {"type": "Point", "coordinates": [132.39806, 34.378]}}, {"properties": {"name": "商工センター入口", "uri": "https://uedayou.net/jrslod/広島電鉄/宮島線/商工センター入口", "railname": "広島電鉄宮島線", "door": "NULL"}, "type": "Feature", "geometry": {"type": "Point", "coordinates": [132.39166, 34.37528]}}, {"properties": {"name": "井口", "uri": "https://uedayou.net/jrslod/広島電鉄/宮島線/井口", "railname": "広島電鉄宮島線", "door": "NULL"}, "type": "Feature", "geometry": {"type": "Point", "coordinates": [132.38601, 34.37185]}}, {"properties": {"name": "修大協創中高前", "uri": "https://uedayou.net/jrslod/広島電鉄/宮島線/修大協創中高前", "railname": "広島電鉄宮島線", "door": "NULL"}, "type": "Feature", "geometry": {"type": "Point", "coordinates": [132.37391, 34.36811]}}, {"properties": {"name": "広電五日市", "uri": "https://uedayou.net/jrslod/広島電鉄/宮島線/広電五日市", "railname": "広島電鉄宮島線", "door": "NULL"}, "type": "Feature", "geometry": {"type": "Point", "coordinates": [132.36827, 34.36661]}}, {"properties": {"name": "佐伯区役所前", "uri": "https://uedayou.net/jrslod/広島電鉄/宮島線/佐伯区役所前", "railname": "広島電鉄宮島線", "door": "NULL"}, "type": "Feature", "geometry": {"type": "Point", "coordinates": [132.36142, 34.36545]}}, {"properties": {"name": "楽々園", "uri": "https://uedayou.net/jrslod/広島電鉄/宮島線/楽々園", "railname": "広島電鉄宮島線", "door": "NULL"}, "type": "Feature", "geometry": {"type": "Point", "coordinates": [132.35237, 34.36437]}}, {"properties": {"name": "山陽女学園前", "uri": "https://uedayou.net/jrslod/広島電鉄/宮島線/山陽女学園前", "railname": "広島電鉄宮島線", "door": "NULL"}, "type": "Feature", "geometry": {"type": "Point", "coordinates": [132.34153, 34.36229]}}, {"properties": {"name": "広電廿日市", "uri": "https://uedayou.net/jrslod/広島電鉄/宮島線/広電廿日市", "railname": "広島電鉄宮島線", "door": "NULL"}, "type": "Feature", "geometry": {"type": "Point", "coordinates": [132.33679, 34.35718]}}, {"properties": {"name": "廿日市市役所前（平良）", "uri": "https://uedayou.net/jrslod/広島電鉄/宮島線/廿日市市役所前（平良）", "railname": "広島電鉄宮島線", "door": "NULL"}, "type": "Feature", "geometry": {"type": "Point", "coordinates": [132.33013, 34.35343]}}, {"properties": {"name": "宮内", "uri": "https://uedayou.net/jrslod/広島電鉄/宮島線/宮内", "railname": "広島電鉄宮島線", "door": "NULL"}, "type": "Feature", "geometry": {"type": "Point", "coordinates": [132.32547, 34.34787]}}, {"properties": {"name": "ＪＡ広島病院前", "uri": "https://uedayou.net/jrslod/広島電鉄/宮島線/ＪＡ広島病院前", "railname": "広島電鉄宮島線", "door": "NULL"}, "type": "Feature", "geometry": {"type": "Point", "coordinates": [132.32251, 34.34405]}}, {"properties": {"name": "地御前", "uri": "https://uedayou.net/jrslod/広島電鉄/宮島線/地御前", "railname": "広島電鉄宮島線", "door": "NULL"}, "type": "Feature", "geometry": {"type": "Point", "coordinates": [132.31983, 34.3406]}}, {"properties": {"name": "阿品東", "uri": "https://uedayou.net/jrslod/広島電鉄/宮島線/阿品東", "railname": "広島電鉄宮島線", "door": "NULL"}, "type": "Feature", "geometry": {"type": "Point", "coordinates": [132.31844, 34.327]}}, {"properties": {"name": "広電阿品", "uri": "https://uedayou.net/jrslod/広島電鉄/宮島線/広電阿品", "railname": "広島電鉄宮島線", "door": "NULL"}, "type": "Feature", "geometry": {"type": "Point", "coordinates": [132.31471, 34.3218]}}, {"properties": {"name": "宮島ボートレース場", "uri": "https://uedayou.net/jrslod/広島電鉄/宮島線/宮島ボートレース場", "railname": "広島電鉄宮島線", "door": "NULL"}, "type": "Feature", "geometry": {"type": "Point", "coordinates": [132.30506, 34.31438]}}, {"properties": {"name": "広電宮島口", "uri": "https://uedayou.net/jrslod/広島電鉄/宮島線/広電宮島口", "railname": "広島電鉄宮島線", "door": "NULL"}, "type": "Feature", "geometry": {"type": "Point", "coordinates": [132.30417, 34.31191]}}]}