{"type": "FeatureCollection", "features": [{"properties": {"name": "西舞鶴", "uri": "https://uedayou.net/jrslod/WILLER TRAINS/宮津線/西舞鶴", "railname": "WILLER TRAINS宮津線", "door": "NULL"}, "type": "Feature", "geometry": {"type": "Point", "coordinates": [135.3305, 35.44155]}}, {"properties": {"name": "四所", "uri": "https://uedayou.net/jrslod/WILLER TRAINS/宮津線/四所", "railname": "WILLER TRAINS宮津線", "door": "NULL"}, "type": "Feature", "geometry": {"type": "Point", "coordinates": [135.29048, 35.44619]}}, {"properties": {"name": "東雲", "uri": "https://uedayou.net/jrslod/WILLER TRAINS/宮津線/東雲", "railname": "WILLER TRAINS宮津線", "door": "NULL"}, "type": "Feature", "geometry": {"type": "Point", "coordinates": [135.28476, 35.47572]}}, {"properties": {"name": "丹後神崎", "uri": "https://uedayou.net/jrslod/WILLER TRAINS/宮津線/丹後神崎", "railname": "WILLER TRAINS宮津線", "door": "NULL"}, "type": "Feature", "geometry": {"type": "Point", "coordinates": [135.29366, 35.50611]}}, {"properties": {"name": "丹後由良", "uri": "https://uedayou.net/jrslod/WILLER TRAINS/宮津線/丹後由良", "railname": "WILLER TRAINS宮津線", "door": "NULL"}, "type": "Feature", "geometry": {"type": "Point", "coordinates": [135.27941, 35.51587]}}, {"properties": {"name": "栗田", "uri": "https://uedayou.net/jrslod/WILLER TRAINS/宮津線/栗田", "railname": "WILLER TRAINS宮津線", "door": "NULL"}, "type": "Feature", "geometry": {"type": "Point", "coordinates": [135.23562, 35.54318]}}, {"properties": {"name": "宮津", "uri": "https://uedayou.net/jrslod/WILLER TRAINS/宮津線/宮津", "railname": "WILLER TRAINS宮津線", "door": "NULL"}, "type": "Feature", "geometry": {"type": "Point", "coordinates": [135.19935, 35.53402]}}, {"properties": {"name": "天橋立", "uri": "https://uedayou.net/jrslod/WILLER TRAINS/宮津線/天橋立", "railname": "WILLER TRAINS宮津線", "door": "NULL"}, "type": "Feature", "geometry": {"type": "Point", "coordinates": [135.18357, 35.55694]}}, {"properties": {"name": "岩滝口", "uri": "https://uedayou.net/jrslod/WILLER TRAINS/宮津線/岩滝口", "railname": "WILLER TRAINS宮津線", "door": "NULL"}, "type": "Feature", "geometry": {"type": "Point", "coordinates": [135.15208, 35.55013]}}, {"properties": {"name": "与謝野", "uri": "https://uedayou.net/jrslod/WILLER TRAINS/宮津線/与謝野", "railname": "WILLER TRAINS宮津線", "door": "NULL"}, "type": "Feature", "geometry": {"type": "Point", "coordinates": [135.12579, 35.54321]}}, {"properties": {"name": "京丹後大宮", "uri": "https://uedayou.net/jrslod/WILLER TRAINS/宮津線/京丹後大宮", "railname": "WILLER TRAINS宮津線", "door": "NULL"}, "type": "Feature", "geometry": {"type": "Point", "coordinates": [135.09407, 35.57884]}}, {"properties": {"name": "峰山", "uri": "https://uedayou.net/jrslod/WILLER TRAINS/宮津線/峰山", "railname": "WILLER TRAINS宮津線", "door": "NULL"}, "type": "Feature", "geometry": {"type": "Point", "coordinates": [135.07225, 35.62556]}}, {"properties": {"name": "網野", "uri": "https://uedayou.net/jrslod/WILLER TRAINS/宮津線/網野", "railname": "WILLER TRAINS宮津線", "door": "NULL"}, "type": "Feature", "geometry": {"type": "Point", "coordinates": [135.02556, 35.66731]}}, {"properties": {"name": "夕日ヶ浦木津温泉", "uri": "https://uedayou.net/jrslod/WILLER TRAINS/宮津線/夕日ヶ浦木津温泉", "railname": "WILLER TRAINS宮津線", "door": "NULL"}, "type": "Feature", "geometry": {"type": "Point", "coordinates": [134.97271, 35.64994]}}, {"properties": {"name": "小天橋", "uri": "https://uedayou.net/jrslod/WILLER TRAINS/宮津線/小天橋", "railname": "WILLER TRAINS宮津線", "door": "NULL"}, "type": "Feature", "geometry": {"type": "Point", "coordinates": [134.92815, 35.62957]}}, {"properties": {"name": "かぶと山", "uri": "https://uedayou.net/jrslod/WILLER TRAINS/宮津線/かぶと山", "railname": "WILLER TRAINS宮津線", "door": "NULL"}, "type": "Feature", "geometry": {"type": "Point", "coordinates": [134.91946, 35.60675]}}, {"properties": {"name": "久美浜", "uri": "https://uedayou.net/jrslod/WILLER TRAINS/宮津線/久美浜", "railname": "WILLER TRAINS宮津線", "door": "NULL"}, "type": "Feature", "geometry": {"type": "Point", "coordinates": [134.89475, 35.60222]}}, {"properties": {"name": "コウノトリの郷", "uri": "https://uedayou.net/jrslod/WILLER TRAINS/宮津線/コウノトリの郷", "railname": "WILLER TRAINS宮津線", "door": "NULL"}, "type": "Feature", "geometry": {"type": "Point", "coordinates": [134.83623, 35.55285]}}, {"properties": {"name": "豊岡", "uri": "https://uedayou.net/jrslod/WILLER TRAINS/宮津線/豊岡", "railname": "WILLER TRAINS宮津線", "door": "NULL"}, "type": "Feature", "geometry": {"type": "Point", "coordinates": [134.81376, 35.54407]}}]}