{"type": "FeatureCollection", "features": [{"properties": {"name": "伊勢若松", "uri": "https://uedayou.net/jrslod/近畿日本鉄道/近鉄鈴鹿線/伊勢若松", "railname": "近畿日本鉄道近鉄鈴鹿線", "door": "NULL"}, "type": "Feature", "geometry": {"type": "Point", "coordinates": [136.61648, 34.86897]}}, {"properties": {"name": "柳", "uri": "https://uedayou.net/jrslod/近畿日本鉄道/近鉄鈴鹿線/柳", "railname": "近畿日本鉄道近鉄鈴鹿線", "door": "NULL"}, "type": "Feature", "geometry": {"type": "Point", "coordinates": [136.59569, 34.87162]}}, {"properties": {"name": "鈴鹿市", "uri": "https://uedayou.net/jrslod/近畿日本鉄道/近鉄鈴鹿線/鈴鹿市", "railname": "近畿日本鉄道近鉄鈴鹿線", "door": "NULL"}, "type": "Feature", "geometry": {"type": "Point", "coordinates": [136.58241, 34.88418]}}, {"properties": {"name": "三日市", "uri": "https://uedayou.net/jrslod/近畿日本鉄道/近鉄鈴鹿線/三日市", "railname": "近畿日本鉄道近鉄鈴鹿線", "door": "NULL"}, "type": "Feature", "geometry": {"type": "Point", "coordinates": [136.56262, 34.88034]}}, {"properties": {"name": "平田町", "uri": "https://uedayou.net/jrslod/近畿日本鉄道/近鉄鈴鹿線/平田町", "railname": "近畿日本鉄道近鉄鈴鹿線", "door": "NULL"}, "type": "Feature", "geometry": {"type": "Point", "coordinates": [136.54283, 34.87531]}}]}