{"type": "FeatureCollection", "features": [{"properties": {"name": "古市", "uri": "https://uedayou.net/jrslod/近畿日本鉄道/近鉄長野線/古市", "railname": "近畿日本鉄道近鉄長野線", "door": "NULL"}, "type": "Feature", "geometry": {"type": "Point", "coordinates": [135.60913, 34.55414]}}, {"properties": {"name": "喜志", "uri": "https://uedayou.net/jrslod/近畿日本鉄道/近鉄長野線/喜志", "railname": "近畿日本鉄道近鉄長野線", "door": "NULL"}, "type": "Feature", "geometry": {"type": "Point", "coordinates": [135.60739, 34.52336]}}, {"properties": {"name": "富田林", "uri": "https://uedayou.net/jrslod/近畿日本鉄道/近鉄長野線/富田林", "railname": "近畿日本鉄道近鉄長野線", "door": "NULL"}, "type": "Feature", "geometry": {"type": "Point", "coordinates": [135.59991, 34.5039]}}, {"properties": {"name": "富田林西口", "uri": "https://uedayou.net/jrslod/近畿日本鉄道/近鉄長野線/富田林西口", "railname": "近畿日本鉄道近鉄長野線", "door": "NULL"}, "type": "Feature", "geometry": {"type": "Point", "coordinates": [135.59601, 34.49987]}}, {"properties": {"name": "川西", "uri": "https://uedayou.net/jrslod/近畿日本鉄道/近鉄長野線/川西", "railname": "近畿日本鉄道近鉄長野線", "door": "NULL"}, "type": "Feature", "geometry": {"type": "Point", "coordinates": [135.59088, 34.49229]}}, {"properties": {"name": "滝谷不動", "uri": "https://uedayou.net/jrslod/近畿日本鉄道/近鉄長野線/滝谷不動", "railname": "近畿日本鉄道近鉄長野線", "door": "NULL"}, "type": "Feature", "geometry": {"type": "Point", "coordinates": [135.58648, 34.48097]}}, {"properties": {"name": "汐ノ宮", "uri": "https://uedayou.net/jrslod/近畿日本鉄道/近鉄長野線/汐ノ宮", "railname": "近畿日本鉄道近鉄長野線", "door": "NULL"}, "type": "Feature", "geometry": {"type": "Point", "coordinates": [135.57914, 34.46736]}}, {"properties": {"name": "河内長野", "uri": "https://uedayou.net/jrslod/近畿日本鉄道/近鉄長野線/河内長野", "railname": "近畿日本鉄道近鉄長野線", "door": "NULL"}, "type": "Feature", "geometry": {"type": "Point", "coordinates": [135.57289, 34.45038]}}]}