{"type": "FeatureCollection", "features": [{"properties": {"name": "多気", "uri": "https://uedayou.net/jrslod/東海旅客鉄道/参宮線/多気", "railname": "東海旅客鉄道参宮線", "door": "NULL"}, "type": "Feature", "geometry": {"type": "Point", "coordinates": [136.57264, 34.51706]}}, {"properties": {"name": "外城田", "uri": "https://uedayou.net/jrslod/東海旅客鉄道/参宮線/外城田", "railname": "東海旅客鉄道参宮線", "door": "NULL"}, "type": "Feature", "geometry": {"type": "Point", "coordinates": [136.59627, 34.49767]}}, {"properties": {"name": "田丸", "uri": "https://uedayou.net/jrslod/東海旅客鉄道/参宮線/田丸", "railname": "東海旅客鉄道参宮線", "door": "NULL"}, "type": "Feature", "geometry": {"type": "Point", "coordinates": [136.63438, 34.48843]}}, {"properties": {"name": "宮川", "uri": "https://uedayou.net/jrslod/東海旅客鉄道/参宮線/宮川", "railname": "東海旅客鉄道参宮線", "door": "NULL"}, "type": "Feature", "geometry": {"type": "Point", "coordinates": [136.67183, 34.50307]}}, {"properties": {"name": "山田上口", "uri": "https://uedayou.net/jrslod/東海旅客鉄道/参宮線/山田上口", "railname": "東海旅客鉄道参宮線", "door": "NULL"}, "type": "Feature", "geometry": {"type": "Point", "coordinates": [136.69442, 34.49581]}}, {"properties": {"name": "伊勢市", "uri": "https://uedayou.net/jrslod/東海旅客鉄道/参宮線/伊勢市", "railname": "東海旅客鉄道参宮線", "door": "NULL"}, "type": "Feature", "geometry": {"type": "Point", "coordinates": [136.70888, 34.49197]}}, {"properties": {"name": "五十鈴ヶ丘", "uri": "https://uedayou.net/jrslod/東海旅客鉄道/参宮線/五十鈴ヶ丘", "railname": "東海旅客鉄道参宮線", "door": "NULL"}, "type": "Feature", "geometry": {"type": "Point", "coordinates": [136.74021, 34.49595]}}, {"properties": {"name": "二見浦", "uri": "https://uedayou.net/jrslod/東海旅客鉄道/参宮線/二見浦", "railname": "東海旅客鉄道参宮線", "door": "NULL"}, "type": "Feature", "geometry": {"type": "Point", "coordinates": [136.77774, 34.50371]}}, {"properties": {"name": "松下", "uri": "https://uedayou.net/jrslod/東海旅客鉄道/参宮線/松下", "railname": "東海旅客鉄道参宮線", "door": "NULL"}, "type": "Feature", "geometry": {"type": "Point", "coordinates": [136.79953, 34.49595]}}, {"properties": {"name": "池の浦シーサイド", "uri": "https://uedayou.net/jrslod/東海旅客鉄道/参宮線/池の浦シーサイド", "railname": "東海旅客鉄道参宮線", "door": "NULL"}, "type": "Feature", "geometry": {"type": "Point", "coordinates": [136.81407, 34.49133]}}, {"properties": {"name": "鳥羽", "uri": "https://uedayou.net/jrslod/東海旅客鉄道/参宮線/鳥羽", "railname": "東海旅客鉄道参宮線", "door": "NULL"}, "type": "Feature", "geometry": {"type": "Point", "coordinates": [136.84183, 34.48692]}}]}