{"type": "FeatureCollection", "features": [{"properties": {"name": "岡山駅前", "uri": "https://uedayou.net/jrslod/岡山電気軌道/東山本線/岡山駅前", "railname": "岡山電気軌道東山本線", "door": "NULL"}, "type": "Feature", "geometry": {"type": "Point", "coordinates": [133.91996, 34.66551]}}, {"properties": {"name": "西川緑道公園", "uri": "https://uedayou.net/jrslod/岡山電気軌道/東山本線/西川緑道公園", "railname": "岡山電気軌道東山本線", "door": "NULL"}, "type": "Feature", "geometry": {"type": "Point", "coordinates": [133.92356, 34.66554]}}, {"properties": {"name": "柳川", "uri": "https://uedayou.net/jrslod/岡山電気軌道/東山本線/柳川", "railname": "岡山電気軌道東山本線", "door": "NULL"}, "type": "Feature", "geometry": {"type": "Point", "coordinates": [133.9256, 34.66554]}}, {"properties": {"name": "城下", "uri": "https://uedayou.net/jrslod/岡山電気軌道/東山本線/城下", "railname": "岡山電気軌道東山本線", "door": "NULL"}, "type": "Feature", "geometry": {"type": "Point", "coordinates": [133.92949, 34.66556]}}, {"properties": {"name": "県庁通り", "uri": "https://uedayou.net/jrslod/岡山電気軌道/東山本線/県庁通り", "railname": "岡山電気軌道東山本線", "door": "NULL"}, "type": "Feature", "geometry": {"type": "Point", "coordinates": [133.9305, 34.66244]}}, {"properties": {"name": "西大寺町", "uri": "https://uedayou.net/jrslod/岡山電気軌道/東山本線/西大寺町", "railname": "岡山電気軌道東山本線", "door": "NULL"}, "type": "Feature", "geometry": {"type": "Point", "coordinates": [133.93057, 34.65888]}}, {"properties": {"name": "小橋", "uri": "https://uedayou.net/jrslod/岡山電気軌道/東山本線/小橋", "railname": "岡山電気軌道東山本線", "door": "NULL"}, "type": "Feature", "geometry": {"type": "Point", "coordinates": [133.93684, 34.6576]}}, {"properties": {"name": "中納言", "uri": "https://uedayou.net/jrslod/岡山電気軌道/東山本線/中納言", "railname": "岡山電気軌道東山本線", "door": "NULL"}, "type": "Feature", "geometry": {"type": "Point", "coordinates": [133.93785, 34.65746]}}, {"properties": {"name": "門田屋敷", "uri": "https://uedayou.net/jrslod/岡山電気軌道/東山本線/門田屋敷", "railname": "岡山電気軌道東山本線", "door": "NULL"}, "type": "Feature", "geometry": {"type": "Point", "coordinates": [133.93927, 34.65618]}}, {"properties": {"name": "東山・おかでんミュージアム", "uri": "https://uedayou.net/jrslod/岡山電気軌道/東山本線/東山・おかでんミュージアム", "railname": "岡山電気軌道東山本線", "door": "NULL"}, "type": "Feature", "geometry": {"type": "Point", "coordinates": [133.94325, 34.65618]}}]}