{"type": "FeatureCollection", "features": [{"properties": {"name": "軽井沢", "uri": "https://uedayou.net/jrslod/しなの鉄道/しなの鉄道線/軽井沢", "railname": "しなの鉄道しなの鉄道線", "door": "NULL"}, "type": "Feature", "geometry": {"type": "Point", "coordinates": [138.63542, 36.34286]}}, {"properties": {"name": "中軽井沢", "uri": "https://uedayou.net/jrslod/しなの鉄道/しなの鉄道線/中軽井沢", "railname": "しなの鉄道しなの鉄道線", "door": "NULL"}, "type": "Feature", "geometry": {"type": "Point", "coordinates": [138.59302, 36.34764]}}, {"properties": {"name": "信濃追分", "uri": "https://uedayou.net/jrslod/しなの鉄道/しなの鉄道線/信濃追分", "railname": "しなの鉄道しなの鉄道線", "door": "NULL"}, "type": "Feature", "geometry": {"type": "Point", "coordinates": [138.55719, 36.33483]}}, {"properties": {"name": "御代田", "uri": "https://uedayou.net/jrslod/しなの鉄道/しなの鉄道線/御代田", "railname": "しなの鉄道しなの鉄道線", "door": "NULL"}, "type": "Feature", "geometry": {"type": "Point", "coordinates": [138.50798, 36.31879]}}, {"properties": {"name": "平原", "uri": "https://uedayou.net/jrslod/しなの鉄道/しなの鉄道線/平原", "railname": "しなの鉄道しなの鉄道線", "door": "NULL"}, "type": "Feature", "geometry": {"type": "Point", "coordinates": [138.4552, 36.30879]}}, {"properties": {"name": "小諸", "uri": "https://uedayou.net/jrslod/しなの鉄道/しなの鉄道線/小諸", "railname": "しなの鉄道しなの鉄道線", "door": "NULL"}, "type": "Feature", "geometry": {"type": "Point", "coordinates": [138.42241, 36.32608]}}, {"properties": {"name": "滋野", "uri": "https://uedayou.net/jrslod/しなの鉄道/しなの鉄道線/滋野", "railname": "しなの鉄道しなの鉄道線", "door": "NULL"}, "type": "Feature", "geometry": {"type": "Point", "coordinates": [138.36421, 36.34223]}}, {"properties": {"name": "田中", "uri": "https://uedayou.net/jrslod/しなの鉄道/しなの鉄道線/田中", "railname": "しなの鉄道しなの鉄道線", "door": "NULL"}, "type": "Feature", "geometry": {"type": "Point", "coordinates": [138.32805, 36.35509]}}, {"properties": {"name": "大屋", "uri": "https://uedayou.net/jrslod/しなの鉄道/しなの鉄道線/大屋", "railname": "しなの鉄道しなの鉄道線", "door": "NULL"}, "type": "Feature", "geometry": {"type": "Point", "coordinates": [138.29555, 36.37014]}}, {"properties": {"name": "信濃国分寺", "uri": "https://uedayou.net/jrslod/しなの鉄道/しなの鉄道線/信濃国分寺", "railname": "しなの鉄道しなの鉄道線", "door": "NULL"}, "type": "Feature", "geometry": {"type": "Point", "coordinates": [138.27471, 36.37783]}}, {"properties": {"name": "上田", "uri": "https://uedayou.net/jrslod/しなの鉄道/しなの鉄道線/上田", "railname": "しなの鉄道しなの鉄道線", "door": "NULL"}, "type": "Feature", "geometry": {"type": "Point", "coordinates": [138.25026, 36.39575]}}, {"properties": {"name": "西上田", "uri": "https://uedayou.net/jrslod/しなの鉄道/しなの鉄道線/西上田", "railname": "しなの鉄道しなの鉄道線", "door": "NULL"}, "type": "Feature", "geometry": {"type": "Point", "coordinates": [138.20804, 36.41726]}}, {"properties": {"name": "テクノさかき", "uri": "https://uedayou.net/jrslod/しなの鉄道/しなの鉄道線/テクノさかき", "railname": "しなの鉄道しなの鉄道線", "door": "NULL"}, "type": "Feature", "geometry": {"type": "Point", "coordinates": [138.18833, 36.43996]}}, {"properties": {"name": "坂城", "uri": "https://uedayou.net/jrslod/しなの鉄道/しなの鉄道線/坂城", "railname": "しなの鉄道しなの鉄道線", "door": "NULL"}, "type": "Feature", "geometry": {"type": "Point", "coordinates": [138.18048, 36.46292]}}, {"properties": {"name": "戸倉", "uri": "https://uedayou.net/jrslod/しなの鉄道/しなの鉄道線/戸倉", "railname": "しなの鉄道しなの鉄道線", "door": "NULL"}, "type": "Feature", "geometry": {"type": "Point", "coordinates": [138.15308, 36.4929]}}, {"properties": {"name": "千曲", "uri": "https://uedayou.net/jrslod/しなの鉄道/しなの鉄道線/千曲", "railname": "しなの鉄道しなの鉄道線", "door": "NULL"}, "type": "Feature", "geometry": {"type": "Point", "coordinates": [138.14108, 36.50961]}}, {"properties": {"name": "屋代", "uri": "https://uedayou.net/jrslod/しなの鉄道/しなの鉄道線/屋代", "railname": "しなの鉄道しなの鉄道線", "door": "NULL"}, "type": "Feature", "geometry": {"type": "Point", "coordinates": [138.12812, 36.5327]}}, {"properties": {"name": "屋代高校前", "uri": "https://uedayou.net/jrslod/しなの鉄道/しなの鉄道線/屋代高校前", "railname": "しなの鉄道しなの鉄道線", "door": "NULL"}, "type": "Feature", "geometry": {"type": "Point", "coordinates": [138.13268, 36.54847]}}, {"properties": {"name": "篠ノ井", "uri": "https://uedayou.net/jrslod/しなの鉄道/しなの鉄道線/篠ノ井", "railname": "しなの鉄道しなの鉄道線", "door": "NULL"}, "type": "Feature", "geometry": {"type": "Point", "coordinates": [138.13796, 36.57666]}}]}