{"type": "FeatureCollection", "features": [{"properties": {"name": "はりまや橋", "uri": "https://uedayou.net/jrslod/とさでん交通/後免線/はりまや橋", "railname": "とさでん交通後免線", "door": "NULL"}, "type": "Feature", "geometry": {"type": "Point", "coordinates": [133.54284, 33.55951]}}, {"properties": {"name": "デンテツターミナルビル前", "uri": "https://uedayou.net/jrslod/とさでん交通/後免線/デンテツターミナルビル前", "railname": "とさでん交通後免線", "door": "NULL"}, "type": "Feature", "geometry": {"type": "Point", "coordinates": [133.54434, 33.55937]}}, {"properties": {"name": "菜園場町", "uri": "https://uedayou.net/jrslod/とさでん交通/後免線/菜園場町", "railname": "とさでん交通後免線", "door": "NULL"}, "type": "Feature", "geometry": {"type": "Point", "coordinates": [133.5483, 33.55903]}}, {"properties": {"name": "宝永町", "uri": "https://uedayou.net/jrslod/とさでん交通/後免線/宝永町", "railname": "とさでん交通後免線", "door": "NULL"}, "type": "Feature", "geometry": {"type": "Point", "coordinates": [133.55393, 33.55857]}}, {"properties": {"name": "知寄町一丁目", "uri": "https://uedayou.net/jrslod/とさでん交通/後免線/知寄町一丁目", "railname": "とさでん交通後免線", "door": "NULL"}, "type": "Feature", "geometry": {"type": "Point", "coordinates": [133.55644, 33.55838]}}, {"properties": {"name": "知寄町二丁目", "uri": "https://uedayou.net/jrslod/とさでん交通/後免線/知寄町二丁目", "railname": "とさでん交通後免線", "door": "NULL"}, "type": "Feature", "geometry": {"type": "Point", "coordinates": [133.56019, 33.55805]}}, {"properties": {"name": "知寄町", "uri": "https://uedayou.net/jrslod/とさでん交通/後免線/知寄町", "railname": "とさでん交通後免線", "door": "NULL"}, "type": "Feature", "geometry": {"type": "Point", "coordinates": [133.56128, 33.55793]}}, {"properties": {"name": "知寄町三丁目", "uri": "https://uedayou.net/jrslod/とさでん交通/後免線/知寄町三丁目", "railname": "とさでん交通後免線", "door": "NULL"}, "type": "Feature", "geometry": {"type": "Point", "coordinates": [133.56587, 33.55744]}}, {"properties": {"name": "葛島橋東詰", "uri": "https://uedayou.net/jrslod/とさでん交通/後免線/葛島橋東詰", "railname": "とさでん交通後免線", "door": "NULL"}, "type": "Feature", "geometry": {"type": "Point", "coordinates": [133.56951, 33.5569]}}, {"properties": {"name": "西高須", "uri": "https://uedayou.net/jrslod/とさでん交通/後免線/西高須", "railname": "とさでん交通後免線", "door": "NULL"}, "type": "Feature", "geometry": {"type": "Point", "coordinates": [133.57352, 33.55824]}}, {"properties": {"name": "県立美術館通", "uri": "https://uedayou.net/jrslod/とさでん交通/後免線/県立美術館通", "railname": "とさでん交通後免線", "door": "NULL"}, "type": "Feature", "geometry": {"type": "Point", "coordinates": [133.57524, 33.55876]}}, {"properties": {"name": "高須", "uri": "https://uedayou.net/jrslod/とさでん交通/後免線/高須", "railname": "とさでん交通後免線", "door": "NULL"}, "type": "Feature", "geometry": {"type": "Point", "coordinates": [133.57674, 33.55914]}}, {"properties": {"name": "文珠通", "uri": "https://uedayou.net/jrslod/とさでん交通/後免線/文珠通", "railname": "とさでん交通後免線", "door": "NULL"}, "type": "Feature", "geometry": {"type": "Point", "coordinates": [133.57978, 33.55916]}}, {"properties": {"name": "介良通", "uri": "https://uedayou.net/jrslod/とさでん交通/後免線/介良通", "railname": "とさでん交通後免線", "door": "NULL"}, "type": "Feature", "geometry": {"type": "Point", "coordinates": [133.58372, 33.56029]}}, {"properties": {"name": "新木", "uri": "https://uedayou.net/jrslod/とさでん交通/後免線/新木", "railname": "とさでん交通後免線", "door": "NULL"}, "type": "Feature", "geometry": {"type": "Point", "coordinates": [133.58703, 33.56242]}}, {"properties": {"name": "東新木", "uri": "https://uedayou.net/jrslod/とさでん交通/後免線/東新木", "railname": "とさでん交通後免線", "door": "NULL"}, "type": "Feature", "geometry": {"type": "Point", "coordinates": [133.58945, 33.5639]}}, {"properties": {"name": "田辺島通", "uri": "https://uedayou.net/jrslod/とさでん交通/後免線/田辺島通", "railname": "とさでん交通後免線", "door": "NULL"}, "type": "Feature", "geometry": {"type": "Point", "coordinates": [133.59304, 33.56628]}}, {"properties": {"name": "鹿児", "uri": "https://uedayou.net/jrslod/とさでん交通/後免線/鹿児", "railname": "とさでん交通後免線", "door": "NULL"}, "type": "Feature", "geometry": {"type": "Point", "coordinates": [133.59747, 33.56695]}}, {"properties": {"name": "舟戸", "uri": "https://uedayou.net/jrslod/とさでん交通/後免線/舟戸", "railname": "とさでん交通後免線", "door": "NULL"}, "type": "Feature", "geometry": {"type": "Point", "coordinates": [133.59976, 33.57054]}}, {"properties": {"name": "北浦", "uri": "https://uedayou.net/jrslod/とさでん交通/後免線/北浦", "railname": "とさでん交通後免線", "door": "NULL"}, "type": "Feature", "geometry": {"type": "Point", "coordinates": [133.60323, 33.57296]}}, {"properties": {"name": "領石通", "uri": "https://uedayou.net/jrslod/とさでん交通/後免線/領石通", "railname": "とさでん交通後免線", "door": "NULL"}, "type": "Feature", "geometry": {"type": "Point", "coordinates": [133.60804, 33.57379]}}, {"properties": {"name": "清和学園前", "uri": "https://uedayou.net/jrslod/とさでん交通/後免線/清和学園前", "railname": "とさでん交通後免線", "door": "NULL"}, "type": "Feature", "geometry": {"type": "Point", "coordinates": [133.61216, 33.57468]}}, {"properties": {"name": "一条橋", "uri": "https://uedayou.net/jrslod/とさでん交通/後免線/一条橋", "railname": "とさでん交通後免線", "door": "NULL"}, "type": "Feature", "geometry": {"type": "Point", "coordinates": [133.61444, 33.57465]}}, {"properties": {"name": "明見橋", "uri": "https://uedayou.net/jrslod/とさでん交通/後免線/明見橋", "railname": "とさでん交通後免線", "door": "NULL"}, "type": "Feature", "geometry": {"type": "Point", "coordinates": [133.61756, 33.57463]}}, {"properties": {"name": "長崎", "uri": "https://uedayou.net/jrslod/とさでん交通/後免線/長崎", "railname": "とさでん交通後免線", "door": "NULL"}, "type": "Feature", "geometry": {"type": "Point", "coordinates": [133.62061, 33.57494]}}, {"properties": {"name": "小篭通", "uri": "https://uedayou.net/jrslod/とさでん交通/後免線/小篭通", "railname": "とさでん交通後免線", "door": "NULL"}, "type": "Feature", "geometry": {"type": "Point", "coordinates": [133.6261, 33.57617]}}, {"properties": {"name": "篠原", "uri": "https://uedayou.net/jrslod/とさでん交通/後免線/篠原", "railname": "とさでん交通後免線", "door": "NULL"}, "type": "Feature", "geometry": {"type": "Point", "coordinates": [133.63158, 33.57688]}}, {"properties": {"name": "住吉通", "uri": "https://uedayou.net/jrslod/とさでん交通/後免線/住吉通", "railname": "とさでん交通後免線", "door": "NULL"}, "type": "Feature", "geometry": {"type": "Point", "coordinates": [133.63648, 33.57637]}}, {"properties": {"name": "東工業前", "uri": "https://uedayou.net/jrslod/とさでん交通/後免線/東工業前", "railname": "とさでん交通後免線", "door": "NULL"}, "type": "Feature", "geometry": {"type": "Point", "coordinates": [133.63758, 33.57626]}}, {"properties": {"name": "後免西町", "uri": "https://uedayou.net/jrslod/とさでん交通/後免線/後免西町", "railname": "とさでん交通後免線", "door": "NULL"}, "type": "Feature", "geometry": {"type": "Point", "coordinates": [133.64295, 33.57577]}}, {"properties": {"name": "後免中町", "uri": "https://uedayou.net/jrslod/とさでん交通/後免線/後免中町", "railname": "とさでん交通後免線", "door": "NULL"}, "type": "Feature", "geometry": {"type": "Point", "coordinates": [133.6459, 33.57549]}}, {"properties": {"name": "後免東町", "uri": "https://uedayou.net/jrslod/とさでん交通/後免線/後免東町", "railname": "とさでん交通後免線", "door": "NULL"}, "type": "Feature", "geometry": {"type": "Point", "coordinates": [133.64822, 33.57461]}}, {"properties": {"name": "後免町", "uri": "https://uedayou.net/jrslod/とさでん交通/後免線/後免町", "railname": "とさでん交通後免線", "door": "NULL"}, "type": "Feature", "geometry": {"type": "Point", "coordinates": [133.65046, 33.57438]}}]}