{"type": "FeatureCollection", "features": [{"properties": {"name": "はりまや橋", "uri": "https://uedayou.net/jrslod/とさでん交通/桟橋線/はりまや橋", "railname": "とさでん交通桟橋線", "door": "NULL"}, "type": "Feature", "geometry": {"type": "Point", "coordinates": [133.54279, 33.55911]}}, {"properties": {"name": "梅の辻", "uri": "https://uedayou.net/jrslod/とさでん交通/桟橋線/梅の辻", "railname": "とさでん交通桟橋線", "door": "NULL"}, "type": "Feature", "geometry": {"type": "Point", "coordinates": [133.54336, 33.55432]}}, {"properties": {"name": "桟橋通一丁目", "uri": "https://uedayou.net/jrslod/とさでん交通/桟橋線/桟橋通一丁目", "railname": "とさでん交通桟橋線", "door": "NULL"}, "type": "Feature", "geometry": {"type": "Point", "coordinates": [133.54599, 33.55045]}}, {"properties": {"name": "桟橋通二丁目", "uri": "https://uedayou.net/jrslod/とさでん交通/桟橋線/桟橋通二丁目", "railname": "とさでん交通桟橋線", "door": "NULL"}, "type": "Feature", "geometry": {"type": "Point", "coordinates": [133.54705, 33.54888]}}, {"properties": {"name": "桟橋通三丁目", "uri": "https://uedayou.net/jrslod/とさでん交通/桟橋線/桟橋通三丁目", "railname": "とさでん交通桟橋線", "door": "NULL"}, "type": "Feature", "geometry": {"type": "Point", "coordinates": [133.54866, 33.54651]}}, {"properties": {"name": "桟橋通四丁目", "uri": "https://uedayou.net/jrslod/とさでん交通/桟橋線/桟橋通四丁目", "railname": "とさでん交通桟橋線", "door": "NULL"}, "type": "Feature", "geometry": {"type": "Point", "coordinates": [133.54984, 33.5448]}}, {"properties": {"name": "桟橋車庫前", "uri": "https://uedayou.net/jrslod/とさでん交通/桟橋線/桟橋車庫前", "railname": "とさでん交通桟橋線", "door": "NULL"}, "type": "Feature", "geometry": {"type": "Point", "coordinates": [133.55212, 33.54146]}}, {"properties": {"name": "桟橋通五丁目", "uri": "https://uedayou.net/jrslod/とさでん交通/桟橋線/桟橋通五丁目", "railname": "とさでん交通桟橋線", "door": "NULL"}, "type": "Feature", "geometry": {"type": "Point", "coordinates": [133.55289, 33.54026]}}]}