{"type": "FeatureCollection", "features": [{"properties": {"name": "川西能勢口", "uri": "https://uedayou.net/jrslod/能勢電鉄/妙見線/川西能勢口", "railname": "能勢電鉄妙見線", "door": "NULL"}, "type": "Feature", "geometry": {"type": "Point", "coordinates": [135.41325, 34.82764]}}, {"properties": {"name": "絹延橋", "uri": "https://uedayou.net/jrslod/能勢電鉄/妙見線/絹延橋", "railname": "能勢電鉄妙見線", "door": "NULL"}, "type": "Feature", "geometry": {"type": "Point", "coordinates": [135.42302, 34.83445]}}, {"properties": {"name": "滝山", "uri": "https://uedayou.net/jrslod/能勢電鉄/妙見線/滝山", "railname": "能勢電鉄妙見線", "door": "NULL"}, "type": "Feature", "geometry": {"type": "Point", "coordinates": [135.42115, 34.84343]}}, {"properties": {"name": "鴬の森", "uri": "https://uedayou.net/jrslod/能勢電鉄/妙見線/鴬の森", "railname": "能勢電鉄妙見線", "door": "NULL"}, "type": "Feature", "geometry": {"type": "Point", "coordinates": [135.41864, 34.84809]}}, {"properties": {"name": "鼓滝", "uri": "https://uedayou.net/jrslod/能勢電鉄/妙見線/鼓滝", "railname": "能勢電鉄妙見線", "door": "NULL"}, "type": "Feature", "geometry": {"type": "Point", "coordinates": [135.41827, 34.85431]}}, {"properties": {"name": "多田", "uri": "https://uedayou.net/jrslod/能勢電鉄/妙見線/多田", "railname": "能勢電鉄妙見線", "door": "NULL"}, "type": "Feature", "geometry": {"type": "Point", "coordinates": [135.41654, 34.86089]}}, {"properties": {"name": "平野", "uri": "https://uedayou.net/jrslod/能勢電鉄/妙見線/平野", "railname": "能勢電鉄妙見線", "door": "NULL"}, "type": "Feature", "geometry": {"type": "Point", "coordinates": [135.41725, 34.86845]}}, {"properties": {"name": "一の鳥居", "uri": "https://uedayou.net/jrslod/能勢電鉄/妙見線/一の鳥居", "railname": "能勢電鉄妙見線", "door": "NULL"}, "type": "Feature", "geometry": {"type": "Point", "coordinates": [135.42012, 34.87929]}}, {"properties": {"name": "畦野", "uri": "https://uedayou.net/jrslod/能勢電鉄/妙見線/畦野", "railname": "能勢電鉄妙見線", "door": "NULL"}, "type": "Feature", "geometry": {"type": "Point", "coordinates": [135.41559, 34.88502]}}, {"properties": {"name": "山下", "uri": "https://uedayou.net/jrslod/能勢電鉄/妙見線/山下", "railname": "能勢電鉄妙見線", "door": "NULL"}, "type": "Feature", "geometry": {"type": "Point", "coordinates": [135.412, 34.89268]}}, {"properties": {"name": "笹部", "uri": "https://uedayou.net/jrslod/能勢電鉄/妙見線/笹部", "railname": "能勢電鉄妙見線", "door": "NULL"}, "type": "Feature", "geometry": {"type": "Point", "coordinates": [135.41683, 34.89363]}}, {"properties": {"name": "光風台", "uri": "https://uedayou.net/jrslod/能勢電鉄/妙見線/光風台", "railname": "能勢電鉄妙見線", "door": "NULL"}, "type": "Feature", "geometry": {"type": "Point", "coordinates": [135.43161, 34.90013]}}, {"properties": {"name": "ときわ台", "uri": "https://uedayou.net/jrslod/能勢電鉄/妙見線/ときわ台", "railname": "能勢電鉄妙見線", "door": "NULL"}, "type": "Feature", "geometry": {"type": "Point", "coordinates": [135.4378, 34.90595]}}, {"properties": {"name": "妙見口", "uri": "https://uedayou.net/jrslod/能勢電鉄/妙見線/妙見口", "railname": "能勢電鉄妙見線", "door": "NULL"}, "type": "Feature", "geometry": {"type": "Point", "coordinates": [135.44491, 34.9117]}}]}