{"type": "FeatureCollection", "features": [{"properties": {"name": "瓦町", "uri": "https://uedayou.net/jrslod/高松琴平電気鉄道/志度線/瓦町", "railname": "高松琴平電気鉄道志度線", "door": "NULL"}, "type": "Feature", "geometry": {"type": "Point", "coordinates": [134.05325, 34.33953]}}, {"properties": {"name": "今橋", "uri": "https://uedayou.net/jrslod/高松琴平電気鉄道/志度線/今橋", "railname": "高松琴平電気鉄道志度線", "door": "NULL"}, "type": "Feature", "geometry": {"type": "Point", "coordinates": [134.05887, 34.34167]}}, {"properties": {"name": "松島二丁目", "uri": "https://uedayou.net/jrslod/高松琴平電気鉄道/志度線/松島二丁目", "railname": "高松琴平電気鉄道志度線", "door": "NULL"}, "type": "Feature", "geometry": {"type": "Point", "coordinates": [134.06431, 34.34012]}}, {"properties": {"name": "沖松島", "uri": "https://uedayou.net/jrslod/高松琴平電気鉄道/志度線/沖松島", "railname": "高松琴平電気鉄道志度線", "door": "NULL"}, "type": "Feature", "geometry": {"type": "Point", "coordinates": [134.07265, 34.34126]}}, {"properties": {"name": "春日川", "uri": "https://uedayou.net/jrslod/高松琴平電気鉄道/志度線/春日川", "railname": "高松琴平電気鉄道志度線", "door": "NULL"}, "type": "Feature", "geometry": {"type": "Point", "coordinates": [134.08341, 34.34102]}}, {"properties": {"name": "潟元", "uri": "https://uedayou.net/jrslod/高松琴平電気鉄道/志度線/潟元", "railname": "高松琴平電気鉄道志度線", "door": "NULL"}, "type": "Feature", "geometry": {"type": "Point", "coordinates": [134.09781, 34.34126]}}, {"properties": {"name": "琴電屋島", "uri": "https://uedayou.net/jrslod/高松琴平電気鉄道/志度線/琴電屋島", "railname": "高松琴平電気鉄道志度線", "door": "NULL"}, "type": "Feature", "geometry": {"type": "Point", "coordinates": [134.10623, 34.34149]}}, {"properties": {"name": "古高松", "uri": "https://uedayou.net/jrslod/高松琴平電気鉄道/志度線/古高松", "railname": "高松琴平電気鉄道志度線", "door": "NULL"}, "type": "Feature", "geometry": {"type": "Point", "coordinates": [134.11281, 34.34094]}}, {"properties": {"name": "八栗", "uri": "https://uedayou.net/jrslod/高松琴平電気鉄道/志度線/八栗", "railname": "高松琴平電気鉄道志度線", "door": "NULL"}, "type": "Feature", "geometry": {"type": "Point", "coordinates": [134.12233, 34.34463]}}, {"properties": {"name": "六万寺", "uri": "https://uedayou.net/jrslod/高松琴平電気鉄道/志度線/六万寺", "railname": "高松琴平電気鉄道志度線", "door": "NULL"}, "type": "Feature", "geometry": {"type": "Point", "coordinates": [134.13399, 34.34282]}}, {"properties": {"name": "大町", "uri": "https://uedayou.net/jrslod/高松琴平電気鉄道/志度線/大町", "railname": "高松琴平電気鉄道志度線", "door": "NULL"}, "type": "Feature", "geometry": {"type": "Point", "coordinates": [134.14112, 34.33749]}}, {"properties": {"name": "八栗新道", "uri": "https://uedayou.net/jrslod/高松琴平電気鉄道/志度線/八栗新道", "railname": "高松琴平電気鉄道志度線", "door": "NULL"}, "type": "Feature", "geometry": {"type": "Point", "coordinates": [134.1478, 34.33676]}}, {"properties": {"name": "塩屋", "uri": "https://uedayou.net/jrslod/高松琴平電気鉄道/志度線/塩屋", "railname": "高松琴平電気鉄道志度線", "door": "NULL"}, "type": "Feature", "geometry": {"type": "Point", "coordinates": [134.15549, 34.33555]}}, {"properties": {"name": "房前", "uri": "https://uedayou.net/jrslod/高松琴平電気鉄道/志度線/房前", "railname": "高松琴平電気鉄道志度線", "door": "NULL"}, "type": "Feature", "geometry": {"type": "Point", "coordinates": [134.15859, 34.33207]}}, {"properties": {"name": "原", "uri": "https://uedayou.net/jrslod/高松琴平電気鉄道/志度線/原", "railname": "高松琴平電気鉄道志度線", "door": "NULL"}, "type": "Feature", "geometry": {"type": "Point", "coordinates": [134.16338, 34.32675]}}, {"properties": {"name": "琴電志度", "uri": "https://uedayou.net/jrslod/高松琴平電気鉄道/志度線/琴電志度", "railname": "高松琴平電気鉄道志度線", "door": "NULL"}, "type": "Feature", "geometry": {"type": "Point", "coordinates": [134.17209, 34.32247]}}]}