{"type": "FeatureCollection", "features": [{"properties": {"name": "駅前", "uri": "https://uedayou.net/jrslod/豊橋鉄道/東田本線/駅前", "railname": "豊橋鉄道東田本線", "door": "NULL"}, "type": "Feature", "geometry": {"type": "Point", "coordinates": [137.38301, 34.76382]}}, {"properties": {"name": "駅前大通", "uri": "https://uedayou.net/jrslod/豊橋鉄道/東田本線/駅前大通", "railname": "豊橋鉄道東田本線", "door": "NULL"}, "type": "Feature", "geometry": {"type": "Point", "coordinates": [137.38591, 34.7631]}}, {"properties": {"name": "新川", "uri": "https://uedayou.net/jrslod/豊橋鉄道/東田本線/新川", "railname": "豊橋鉄道東田本線", "door": "NULL"}, "type": "Feature", "geometry": {"type": "Point", "coordinates": [137.38924, 34.76292]}}, {"properties": {"name": "札木", "uri": "https://uedayou.net/jrslod/豊橋鉄道/東田本線/札木", "railname": "豊橋鉄道東田本線", "door": "NULL"}, "type": "Feature", "geometry": {"type": "Point", "coordinates": [137.39031, 34.76471]}}, {"properties": {"name": "市役所前", "uri": "https://uedayou.net/jrslod/豊橋鉄道/東田本線/市役所前", "railname": "豊橋鉄道東田本線", "door": "NULL"}, "type": "Feature", "geometry": {"type": "Point", "coordinates": [137.39278, 34.76732]}}, {"properties": {"name": "豊橋公園前", "uri": "https://uedayou.net/jrslod/豊橋鉄道/東田本線/豊橋公園前", "railname": "豊橋鉄道東田本線", "door": "NULL"}, "type": "Feature", "geometry": {"type": "Point", "coordinates": [137.39614, 34.76668]}}, {"properties": {"name": "東八町", "uri": "https://uedayou.net/jrslod/豊橋鉄道/東田本線/東八町", "railname": "豊橋鉄道東田本線", "door": "NULL"}, "type": "Feature", "geometry": {"type": "Point", "coordinates": [137.40043, 34.76587]}}, {"properties": {"name": "前畑", "uri": "https://uedayou.net/jrslod/豊橋鉄道/東田本線/前畑", "railname": "豊橋鉄道東田本線", "door": "NULL"}, "type": "Feature", "geometry": {"type": "Point", "coordinates": [137.40474, 34.76575]}}, {"properties": {"name": "東田坂上", "uri": "https://uedayou.net/jrslod/豊橋鉄道/東田本線/東田坂上", "railname": "豊橋鉄道東田本線", "door": "NULL"}, "type": "Feature", "geometry": {"type": "Point", "coordinates": [137.40812, 34.76574]}}, {"properties": {"name": "東田", "uri": "https://uedayou.net/jrslod/豊橋鉄道/東田本線/東田", "railname": "豊橋鉄道東田本線", "door": "NULL"}, "type": "Feature", "geometry": {"type": "Point", "coordinates": [137.41346, 34.76533]}}, {"properties": {"name": "競輪場前", "uri": "https://uedayou.net/jrslod/豊橋鉄道/東田本線/競輪場前", "railname": "豊橋鉄道東田本線", "door": "NULL"}, "type": "Feature", "geometry": {"type": "Point", "coordinates": [137.41753, 34.76499]}}, {"properties": {"name": "井原", "uri": "https://uedayou.net/jrslod/豊橋鉄道/東田本線/井原", "railname": "豊橋鉄道東田本線", "door": "NULL"}, "type": "Feature", "geometry": {"type": "Point", "coordinates": [137.42159, 34.76424]}}, {"properties": {"name": "赤岩口", "uri": "https://uedayou.net/jrslod/豊橋鉄道/東田本線/赤岩口", "railname": "豊橋鉄道東田本線", "door": "NULL"}, "type": "Feature", "geometry": {"type": "Point", "coordinates": [137.42939, 34.76341]}}, {"properties": {"name": "運動公園前", "uri": "https://uedayou.net/jrslod/豊橋鉄道/東田本線/運動公園前", "railname": "豊橋鉄道東田本線", "door": "NULL"}, "type": "Feature", "geometry": {"type": "Point", "coordinates": [137.42239, 34.75876]}}]}