{"type": "FeatureCollection", "features": [{"properties": {"name": "調布", "uri": "https://uedayou.net/jrslod/京王電鉄/京王相模原線/調布", "railname": "京王電鉄京王相模原線", "door": "NULL"}, "type": "Feature", "geometry": {"type": "Point", "coordinates": [139.54356, 35.65211]}}, {"properties": {"name": "京王多摩川", "uri": "https://uedayou.net/jrslod/京王電鉄/京王相模原線/京王多摩川", "railname": "京王電鉄京王相模原線", "door": "NULL"}, "type": "Feature", "geometry": {"type": "Point", "coordinates": [139.53635, 35.64418]}}, {"properties": {"name": "京王稲田堤", "uri": "https://uedayou.net/jrslod/京王電鉄/京王相模原線/京王稲田堤", "railname": "京王電鉄京王相模原線", "door": "NULL"}, "type": "Feature", "geometry": {"type": "Point", "coordinates": [139.53206, 35.63416]}}, {"properties": {"name": "京王よみうりランド", "uri": "https://uedayou.net/jrslod/京王電鉄/京王相模原線/京王よみうりランド", "railname": "京王電鉄京王相模原線", "door": "NULL"}, "type": "Feature", "geometry": {"type": "Point", "coordinates": [139.51749, 35.63297]}}, {"properties": {"name": "稲城", "uri": "https://uedayou.net/jrslod/京王電鉄/京王相模原線/稲城", "railname": "京王電鉄京王相模原線", "door": "NULL"}, "type": "Feature", "geometry": {"type": "Point", "coordinates": [139.49985, 35.6361]}}, {"properties": {"name": "若葉台", "uri": "https://uedayou.net/jrslod/京王電鉄/京王相模原線/若葉台", "railname": "京王電鉄京王相模原線", "door": "NULL"}, "type": "Feature", "geometry": {"type": "Point", "coordinates": [139.47342, 35.61928]}}, {"properties": {"name": "京王永山", "uri": "https://uedayou.net/jrslod/京王電鉄/京王相模原線/京王永山", "railname": "京王電鉄京王相模原線", "door": "NULL"}, "type": "Feature", "geometry": {"type": "Point", "coordinates": [139.44893, 35.63005]}}, {"properties": {"name": "京王多摩センター", "uri": "https://uedayou.net/jrslod/京王電鉄/京王相模原線/京王多摩センター", "railname": "京王電鉄京王相模原線", "door": "NULL"}, "type": "Feature", "geometry": {"type": "Point", "coordinates": [139.42516, 35.62558]}}, {"properties": {"name": "京王堀之内", "uri": "https://uedayou.net/jrslod/京王電鉄/京王相模原線/京王堀之内", "railname": "京王電鉄京王相模原線", "door": "NULL"}, "type": "Feature", "geometry": {"type": "Point", "coordinates": [139.40131, 35.62497]}}, {"properties": {"name": "南大沢", "uri": "https://uedayou.net/jrslod/京王電鉄/京王相模原線/南大沢", "railname": "京王電鉄京王相模原線", "door": "NULL"}, "type": "Feature", "geometry": {"type": "Point", "coordinates": [139.37996, 35.61414]}}, {"properties": {"name": "多摩境", "uri": "https://uedayou.net/jrslod/京王電鉄/京王相模原線/多摩境", "railname": "京王電鉄京王相模原線", "door": "NULL"}, "type": "Feature", "geometry": {"type": "Point", "coordinates": [139.36694, 35.60175]}}, {"properties": {"name": "橋本", "uri": "https://uedayou.net/jrslod/京王電鉄/京王相模原線/橋本", "railname": "京王電鉄京王相模原線", "door": "NULL"}, "type": "Feature", "geometry": {"type": "Point", "coordinates": [139.34438, 35.5947]}}]}