{"type": "FeatureCollection", "features": [{"properties": {"name": "福井口", "uri": "https://uedayou.net/jrslod/えちぜん鉄道/三国芦原線/福井口", "railname": "えちぜん鉄道三国芦原線", "door": "NULL"}, "type": "Feature", "geometry": {"type": "Point", "coordinates": [136.23332, 36.07119]}}, {"properties": {"name": "まつもと町屋", "uri": "https://uedayou.net/jrslod/えちぜん鉄道/三国芦原線/まつもと町屋", "railname": "えちぜん鉄道三国芦原線", "door": "NULL"}, "type": "Feature", "geometry": {"type": "Point", "coordinates": [136.22864, 36.07696]}}, {"properties": {"name": "西別院", "uri": "https://uedayou.net/jrslod/えちぜん鉄道/三国芦原線/西別院", "railname": "えちぜん鉄道三国芦原線", "door": "NULL"}, "type": "Feature", "geometry": {"type": "Point", "coordinates": [136.22261, 36.07524]}}, {"properties": {"name": "田原町", "uri": "https://uedayou.net/jrslod/えちぜん鉄道/三国芦原線/田原町", "railname": "えちぜん鉄道三国芦原線", "door": "NULL"}, "type": "Feature", "geometry": {"type": "Point", "coordinates": [136.21805, 36.07501]}}, {"properties": {"name": "福大前西福井", "uri": "https://uedayou.net/jrslod/えちぜん鉄道/三国芦原線/福大前西福井", "railname": "えちぜん鉄道三国芦原線", "door": "NULL"}, "type": "Feature", "geometry": {"type": "Point", "coordinates": [136.20971, 36.07458]}}, {"properties": {"name": "日華化学前", "uri": "https://uedayou.net/jrslod/えちぜん鉄道/三国芦原線/日華化学前", "railname": "えちぜん鉄道三国芦原線", "door": "NULL"}, "type": "Feature", "geometry": {"type": "Point", "coordinates": [136.20648, 36.08077]}}, {"properties": {"name": "八ツ島", "uri": "https://uedayou.net/jrslod/えちぜん鉄道/三国芦原線/八ツ島", "railname": "えちぜん鉄道三国芦原線", "door": "NULL"}, "type": "Feature", "geometry": {"type": "Point", "coordinates": [136.20584, 36.08659]}}, {"properties": {"name": "新田塚", "uri": "https://uedayou.net/jrslod/えちぜん鉄道/三国芦原線/新田塚", "railname": "えちぜん鉄道三国芦原線", "door": "NULL"}, "type": "Feature", "geometry": {"type": "Point", "coordinates": [136.20532, 36.09222]}}, {"properties": {"name": "中角", "uri": "https://uedayou.net/jrslod/えちぜん鉄道/三国芦原線/中角", "railname": "えちぜん鉄道三国芦原線", "door": "NULL"}, "type": "Feature", "geometry": {"type": "Point", "coordinates": [136.20447, 36.1008]}}, {"properties": {"name": "鷲塚針原", "uri": "https://uedayou.net/jrslod/えちぜん鉄道/三国芦原線/鷲塚針原", "railname": "えちぜん鉄道三国芦原線", "door": "NULL"}, "type": "Feature", "geometry": {"type": "Point", "coordinates": [136.20478, 36.1199]}}, {"properties": {"name": "太郎丸エンゼルランド", "uri": "https://uedayou.net/jrslod/えちぜん鉄道/三国芦原線/太郎丸エンゼルランド", "railname": "えちぜん鉄道三国芦原線", "door": "NULL"}, "type": "Feature", "geometry": {"type": "Point", "coordinates": [136.20572, 36.13167]}}, {"properties": {"name": "西春江ハートピア", "uri": "https://uedayou.net/jrslod/えちぜん鉄道/三国芦原線/西春江ハートピア", "railname": "えちぜん鉄道三国芦原線", "door": "NULL"}, "type": "Feature", "geometry": {"type": "Point", "coordinates": [136.20624, 36.13921]}}, {"properties": {"name": "西長田ゆりの里", "uri": "https://uedayou.net/jrslod/えちぜん鉄道/三国芦原線/西長田ゆりの里", "railname": "えちぜん鉄道三国芦原線", "door": "NULL"}, "type": "Feature", "geometry": {"type": "Point", "coordinates": [136.20637, 36.15391]}}, {"properties": {"name": "下兵庫こうふく", "uri": "https://uedayou.net/jrslod/えちぜん鉄道/三国芦原線/下兵庫こうふく", "railname": "えちぜん鉄道三国芦原線", "door": "NULL"}, "type": "Feature", "geometry": {"type": "Point", "coordinates": [136.2026, 36.17012]}}, {"properties": {"name": "大関", "uri": "https://uedayou.net/jrslod/えちぜん鉄道/三国芦原線/大関", "railname": "えちぜん鉄道三国芦原線", "door": "NULL"}, "type": "Feature", "geometry": {"type": "Point", "coordinates": [136.20375, 36.1863]}}, {"properties": {"name": "本荘", "uri": "https://uedayou.net/jrslod/えちぜん鉄道/三国芦原線/本荘", "railname": "えちぜん鉄道三国芦原線", "door": "NULL"}, "type": "Feature", "geometry": {"type": "Point", "coordinates": [136.2032, 36.20417]}}, {"properties": {"name": "番田", "uri": "https://uedayou.net/jrslod/えちぜん鉄道/三国芦原線/番田", "railname": "えちぜん鉄道三国芦原線", "door": "NULL"}, "type": "Feature", "geometry": {"type": "Point", "coordinates": [136.20254, 36.2122]}}, {"properties": {"name": "あわら湯のまち", "uri": "https://uedayou.net/jrslod/えちぜん鉄道/三国芦原線/あわら湯のまち", "railname": "えちぜん鉄道三国芦原線", "door": "NULL"}, "type": "Feature", "geometry": {"type": "Point", "coordinates": [136.19421, 36.22295]}}, {"properties": {"name": "水居", "uri": "https://uedayou.net/jrslod/えちぜん鉄道/三国芦原線/水居", "railname": "えちぜん鉄道三国芦原線", "door": "NULL"}, "type": "Feature", "geometry": {"type": "Point", "coordinates": [136.17195, 36.2191]}}, {"properties": {"name": "三国神社", "uri": "https://uedayou.net/jrslod/えちぜん鉄道/三国芦原線/三国神社", "railname": "えちぜん鉄道三国芦原線", "door": "NULL"}, "type": "Feature", "geometry": {"type": "Point", "coordinates": [136.15871, 36.215]}}, {"properties": {"name": "三国", "uri": "https://uedayou.net/jrslod/えちぜん鉄道/三国芦原線/三国", "railname": "えちぜん鉄道三国芦原線", "door": "NULL"}, "type": "Feature", "geometry": {"type": "Point", "coordinates": [136.14963, 36.21712]}}, {"properties": {"name": "三国港", "uri": "https://uedayou.net/jrslod/えちぜん鉄道/三国芦原線/三国港", "railname": "えちぜん鉄道三国芦原線", "door": "NULL"}, "type": "Feature", "geometry": {"type": "Point", "coordinates": [136.14073, 36.22]}}]}