{"type": "FeatureCollection", "features": [{"properties": {"name": "福井", "uri": "https://uedayou.net/jrslod/えちぜん鉄道/勝山永平寺線/福井", "railname": "えちぜん鉄道勝山永平寺線", "door": "NULL"}, "type": "Feature", "geometry": {"type": "Point", "coordinates": [136.22429, 36.06239]}}, {"properties": {"name": "新福井", "uri": "https://uedayou.net/jrslod/えちぜん鉄道/勝山永平寺線/新福井", "railname": "えちぜん鉄道勝山永平寺線", "door": "NULL"}, "type": "Feature", "geometry": {"type": "Point", "coordinates": [136.22721, 36.06503]}}, {"properties": {"name": "福井口", "uri": "https://uedayou.net/jrslod/えちぜん鉄道/勝山永平寺線/福井口", "railname": "えちぜん鉄道勝山永平寺線", "door": "NULL"}, "type": "Feature", "geometry": {"type": "Point", "coordinates": [136.23332, 36.07119]}}, {"properties": {"name": "越前開発", "uri": "https://uedayou.net/jrslod/えちぜん鉄道/勝山永平寺線/越前開発", "railname": "えちぜん鉄道勝山永平寺線", "door": "NULL"}, "type": "Feature", "geometry": {"type": "Point", "coordinates": [136.2416, 36.07547]}}, {"properties": {"name": "越前新保", "uri": "https://uedayou.net/jrslod/えちぜん鉄道/勝山永平寺線/越前新保", "railname": "えちぜん鉄道勝山永平寺線", "door": "NULL"}, "type": "Feature", "geometry": {"type": "Point", "coordinates": [136.25104, 36.08043]}}, {"properties": {"name": "追分口", "uri": "https://uedayou.net/jrslod/えちぜん鉄道/勝山永平寺線/追分口", "railname": "えちぜん鉄道勝山永平寺線", "door": "NULL"}, "type": "Feature", "geometry": {"type": "Point", "coordinates": [136.26104, 36.0823]}}, {"properties": {"name": "東藤島", "uri": "https://uedayou.net/jrslod/えちぜん鉄道/勝山永平寺線/東藤島", "railname": "えちぜん鉄道勝山永平寺線", "door": "NULL"}, "type": "Feature", "geometry": {"type": "Point", "coordinates": [136.27019, 36.08679]}}, {"properties": {"name": "越前島橋", "uri": "https://uedayou.net/jrslod/えちぜん鉄道/勝山永平寺線/越前島橋", "railname": "えちぜん鉄道勝山永平寺線", "door": "NULL"}, "type": "Feature", "geometry": {"type": "Point", "coordinates": [136.27684, 36.09004]}}, {"properties": {"name": "観音町", "uri": "https://uedayou.net/jrslod/えちぜん鉄道/勝山永平寺線/観音町", "railname": "えちぜん鉄道勝山永平寺線", "door": "NULL"}, "type": "Feature", "geometry": {"type": "Point", "coordinates": [136.29007, 36.09181]}}, {"properties": {"name": "松岡", "uri": "https://uedayou.net/jrslod/えちぜん鉄道/勝山永平寺線/松岡", "railname": "えちぜん鉄道勝山永平寺線", "door": "NULL"}, "type": "Feature", "geometry": {"type": "Point", "coordinates": [136.30129, 36.09392]}}, {"properties": {"name": "志比堺", "uri": "https://uedayou.net/jrslod/えちぜん鉄道/勝山永平寺線/志比堺", "railname": "えちぜん鉄道勝山永平寺線", "door": "NULL"}, "type": "Feature", "geometry": {"type": "Point", "coordinates": [136.31061, 36.09769]}}, {"properties": {"name": "永平寺口", "uri": "https://uedayou.net/jrslod/えちぜん鉄道/勝山永平寺線/永平寺口", "railname": "えちぜん鉄道勝山永平寺線", "door": "NULL"}, "type": "Feature", "geometry": {"type": "Point", "coordinates": [136.32703, 36.09558]}}, {"properties": {"name": "下志比", "uri": "https://uedayou.net/jrslod/えちぜん鉄道/勝山永平寺線/下志比", "railname": "えちぜん鉄道勝山永平寺線", "door": "NULL"}, "type": "Feature", "geometry": {"type": "Point", "coordinates": [136.33675, 36.09045]}}, {"properties": {"name": "光明寺", "uri": "https://uedayou.net/jrslod/えちぜん鉄道/勝山永平寺線/光明寺", "railname": "えちぜん鉄道勝山永平寺線", "door": "NULL"}, "type": "Feature", "geometry": {"type": "Point", "coordinates": [136.34494, 36.0883]}}, {"properties": {"name": "轟", "uri": "https://uedayou.net/jrslod/えちぜん鉄道/勝山永平寺線/轟", "railname": "えちぜん鉄道勝山永平寺線", "door": "NULL"}, "type": "Feature", "geometry": {"type": "Point", "coordinates": [136.36144, 36.08679]}}, {"properties": {"name": "越前野中", "uri": "https://uedayou.net/jrslod/えちぜん鉄道/勝山永平寺線/越前野中", "railname": "えちぜん鉄道勝山永平寺線", "door": "NULL"}, "type": "Feature", "geometry": {"type": "Point", "coordinates": [136.37688, 36.08289]}}, {"properties": {"name": "山王", "uri": "https://uedayou.net/jrslod/えちぜん鉄道/勝山永平寺線/山王", "railname": "えちぜん鉄道勝山永平寺線", "door": "NULL"}, "type": "Feature", "geometry": {"type": "Point", "coordinates": [136.39244, 36.07913]}}, {"properties": {"name": "越前竹原", "uri": "https://uedayou.net/jrslod/えちぜん鉄道/勝山永平寺線/越前竹原", "railname": "えちぜん鉄道勝山永平寺線", "door": "NULL"}, "type": "Feature", "geometry": {"type": "Point", "coordinates": [136.41302, 36.07393]}}, {"properties": {"name": "小舟渡", "uri": "https://uedayou.net/jrslod/えちぜん鉄道/勝山永平寺線/小舟渡", "railname": "えちぜん鉄道勝山永平寺線", "door": "NULL"}, "type": "Feature", "geometry": {"type": "Point", "coordinates": [136.43402, 36.07553]}}, {"properties": {"name": "保田", "uri": "https://uedayou.net/jrslod/えちぜん鉄道/勝山永平寺線/保田", "railname": "えちぜん鉄道勝山永平寺線", "door": "NULL"}, "type": "Feature", "geometry": {"type": "Point", "coordinates": [136.45164, 36.06992]}}, {"properties": {"name": "発坂", "uri": "https://uedayou.net/jrslod/えちぜん鉄道/勝山永平寺線/発坂", "railname": "えちぜん鉄道勝山永平寺線", "door": "NULL"}, "type": "Feature", "geometry": {"type": "Point", "coordinates": [136.46615, 36.07259]}}, {"properties": {"name": "比島", "uri": "https://uedayou.net/jrslod/えちぜん鉄道/勝山永平寺線/比島", "railname": "えちぜん鉄道勝山永平寺線", "door": "NULL"}, "type": "Feature", "geometry": {"type": "Point", "coordinates": [136.48408, 36.06598]}}, {"properties": {"name": "勝山", "uri": "https://uedayou.net/jrslod/えちぜん鉄道/勝山永平寺線/勝山", "railname": "えちぜん鉄道勝山永平寺線", "door": "NULL"}, "type": "Feature", "geometry": {"type": "Point", "coordinates": [136.4922, 36.05592]}}]}